{
"type": "FeatureCollection",
"name": "trolleway architecture guide v3",
"crs": { "type": "name", "properties": { "name": "urn:ogc:def:crs:OGC:1.3:CRS84" } },
"features": [
{ "type": "Feature", "properties": { "name": "Модерновый дом", "name_int": null, "description_ru": null, "description_int": null, "cool": "1.5", "start_date": "1900s", "wikidata": null, "architector1": null, "architector2": null, "demolished": 0, "ngw_id": 1 }, "geometry": { "type": "Point", "coordinates": [ 37.992782920526309, 55.920205301331343 ] } },
{ "type": "Feature", "properties": { "name": "Жилой дом", "name_int": null, "description_ru": null, "description_int": null, "cool": "3", "start_date": "1920s", "wikidata": null, "architector1": null, "architector2": null, "demolished": 0, "ngw_id": 2 }, "geometry": { "type": "Point", "coordinates": [ 37.994145723400528, 55.919970037041274 ] } },
{ "type": "Feature", "properties": { "name": "Конструктивистское здание АТС", "name_int": "Telephone station", "description_ru": null, "description_int": null, "cool": "4", "start_date": "1920s", "wikidata": null, "architector1": null, "architector2": null, "demolished": 0, "ngw_id": 3 }, "geometry": { "type": "Point", "coordinates": [ 37.991330640695629, 55.919946896214327 ] } },
{ "type": "Feature", "properties": { "name": "Фабричное общежитие", "name_int": null, "description_ru": "Самая большая общага города, сложной формы, и очень гнилая.", "description_int": null, "cool": "5", "start_date": "1900", "wikidata": null, "architector1": null, "architector2": null, "demolished": 0, "ngw_id": 4 }, "geometry": { "type": "Point", "coordinates": [ 38.003884945961239, 55.919252664981414 ] } },
{ "type": "Feature", "properties": { "name": "Вид на фабричные корпуса", "name_int": null, "description_ru": null, "description_int": null, "cool": "5", "start_date": null, "wikidata": null, "architector1": null, "architector2": null, "demolished": 0, "ngw_id": 5 }, "geometry": { "type": "Point", "coordinates": [ 38.138623476596393, 55.907248212557285 ] } },
{ "type": "Feature", "properties": { "name": null, "name_int": null, "description_ru": null, "description_int": null, "cool": "2", "start_date": "1920s", "wikidata": null, "architector1": null, "architector2": null, "demolished": 0, "ngw_id": 6 }, "geometry": { "type": "Point", "coordinates": [ 38.464935612280414, 55.796104250371421 ] } },
{ "type": "Feature", "properties": { "name": "Дворец Финляндия", "name_int": "", "description_ru": "Снаружи мало что видно", "description_int": "", "cool": "2", "start_date": "", "wikidata": null, "architector1": "", "architector2": "", "demolished": 0, "ngw_id": 7 }, "geometry": { "type": "Point", "coordinates": [ 24.933445888235351, 60.17597755507785 ] } },
{ "type": "Feature", "properties": { "name": "Городской театр", "name_int": "", "description_ru": "", "description_int": "", "cool": "4", "start_date": "1967", "wikidata": null, "architector1": "Тимо Пенттиль", "architector2": "", "demolished": 0, "ngw_id": 8 }, "geometry": { "type": "Point", "coordinates": [ 24.943201592220888, 60.181717997745565 ] } },
{ "type": "Feature", "properties": { "name": "Высотное здание административных сооружений с водонапорным баком", "name_int": "", "description_ru": "", "description_int": "", "cool": "2", "start_date": "1961", "wikidata": null, "architector1": "Ааре Эрви", "architector2": "", "demolished": 0, "ngw_id": 9 }, "geometry": { "type": "Point", "coordinates": [ 24.804670146468606, 60.176960425788728 ] } },
{ "type": "Feature", "properties": { "name": "Главное здание Политехнического института", "name_int": "", "description_ru": "", "description_int": "", "cool": "4", "start_date": "1964", "wikidata": null, "architector1": "Алваар Аалто", "architector2": "", "demolished": 0, "ngw_id": 10 }, "geometry": { "type": "Point", "coordinates": [ 24.82754574517871, 60.185679881412639 ] } },
{ "type": "Feature", "properties": { "name": "Студенческий клуб Диполи", "name_int": "", "description_ru": "", "description_int": "", "cool": "4", "start_date": "1966", "wikidata": null, "architector1": "Рейм Пиетиль", "architector2": "", "demolished": 0, "ngw_id": 11 }, "geometry": { "type": "Point", "coordinates": [ 24.832686354392084, 60.185152848920232 ] } },
{ "type": "Feature", "properties": { "name": "Метро Университет", "name_int": "", "description_ru": "Подземный переход в скале, наклонные лифты, неоновые лампы", "description_int": "", "cool": "4", "start_date": "1995", "wikidata": null, "architector1": "", "architector2": "", "demolished": 0, "ngw_id": 12 }, "geometry": { "type": "Point", "coordinates": [ 24.948097410519338, 60.172465785823029 ] } },
{ "type": "Feature", "properties": { "name": "Усадьба Виттреск", "name_int": "Hvitträsk mansion", "description_ru": "", "description_int": "", "cool": "3", "start_date": "1901-1903", "wikidata": null, "architector1": "", "architector2": "", "demolished": 0, "ngw_id": 13 }, "geometry": { "type": "Point", "coordinates": [ 24.519780683051152, 60.181280240573422 ] } },
{ "type": "Feature", "properties": { "name": "Усадьба Виттроп", "name_int": "", "description_ru": "", "description_int": "", "cool": "3", "start_date": "1901-1904", "wikidata": null, "architector1": "", "architector2": "", "demolished": 0, "ngw_id": 14 }, "geometry": { "type": "Point", "coordinates": [ 24.489428855388965, 60.175075075160414 ] } },
{ "type": "Feature", "properties": { "name": "Здание полиграфкомбината WG", "name_int": "Former WG printing house, now exhibition center", "description_ru": "", "description_int": "", "cool": "2", "start_date": "", "wikidata": null, "architector1": "", "architector2": "", "demolished": 0, "ngw_id": 15 }, "geometry": { "type": "Point", "coordinates": [ 24.794492234299533, 60.178841200927614 ] } },
{ "type": "Feature", "properties": { "name": "Круглые гаражи", "name_int": "Round garages", "description_ru": "", "description_int": "", "cool": "0", "start_date": "", "wikidata": null, "architector1": "", "architector2": "", "demolished": 0, "ngw_id": 16 }, "geometry": { "type": "Point", "coordinates": [ 24.794746008367294, 60.176723645988609 ] } },
{ "type": "Feature", "properties": { "name": "Что-то угловатое", "name_int": "", "description_ru": "", "description_int": "", "cool": "0", "start_date": "", "wikidata": null, "architector1": "", "architector2": "", "demolished": 0, "ngw_id": 17 }, "geometry": { "type": "Point", "coordinates": [ 24.793301966548075, 60.176254548891009 ] } },
{ "type": "Feature", "properties": { "name": "Кирпичизм", "name_int": "", "description_ru": "", "description_int": "", "cool": "0", "start_date": "", "wikidata": null, "architector1": "", "architector2": "", "demolished": 0, "ngw_id": 18 }, "geometry": { "type": "Point", "coordinates": [ 24.936886435773527, 60.16913238527853 ] } },
{ "type": "Feature", "properties": { "name": "Какой-то дом быта", "name_int": "", "description_ru": "", "description_int": "", "cool": "0", "start_date": "", "wikidata": null, "architector1": "", "architector2": "", "demolished": 0, "ngw_id": 19 }, "geometry": { "type": "Point", "coordinates": [ 24.931456119881027, 60.167125926188596 ] } },
{ "type": "Feature", "properties": { "name": "Панелька", "name_int": "", "description_ru": "", "description_int": "", "cool": "0", "start_date": "", "wikidata": null, "architector1": "", "architector2": "", "demolished": 0, "ngw_id": 20 }, "geometry": { "type": "Point", "coordinates": [ 24.923631793756346, 60.162612062584429 ] } },
{ "type": "Feature", "properties": { "name": "Веерное депо с паровозом и автомотрисами, можно заходить на территорию", "name_int": "Railway depot", "description_ru": "", "description_int": "", "cool": "4", "start_date": "", "wikidata": null, "architector1": "", "architector2": "", "demolished": 0, "ngw_id": 21 }, "geometry": { "type": "Point", "coordinates": [ 24.932927111158772, 60.195115904135342 ] } },
{ "type": "Feature", "properties": { "name": "Районный дом культуры", "name_int": "", "description_ru": "", "description_int": "", "cool": "3", "start_date": "", "wikidata": null, "architector1": "", "architector2": "", "demolished": 0, "ngw_id": 22 }, "geometry": { "type": "Point", "coordinates": [ 25.079972340016297, 60.212056423674966 ] } },
{ "type": "Feature", "properties": { "name": "Мастерская Алваара Аалто", "name_int": "", "description_ru": "", "description_int": "", "cool": "0", "start_date": "", "wikidata": null, "architector1": "", "architector2": "", "demolished": 0, "ngw_id": 23 }, "geometry": { "type": "Point", "coordinates": [ 24.869389271112997, 60.19821450777826 ] } },
{ "type": "Feature", "properties": { "name": "", "name_int": "", "description_ru": "Пятая казарма. Оштукатурен только передний фасад. Занимает полиция.", "description_int": "Barracks #5. Only face facade in plaster", "cool": "2", "start_date": "1910", "wikidata": null, "architector1": "", "architector2": "", "demolished": 0, "ngw_id": 24 }, "geometry": { "type": "Point", "coordinates": [ 37.857094655832213, 55.761538823211339 ] } },
{ "type": "Feature", "properties": { "name": "Фабричная казарма", "name_int": "Factory dormitory", "description_ru": "", "description_int": "", "cool": "3", "start_date": "", "wikidata": null, "architector1": "", "architector2": "", "demolished": 0, "ngw_id": 25 }, "geometry": { "type": "Point", "coordinates": [ 37.85813670156179, 55.760985377027467 ] } },
{ "type": "Feature", "properties": { "name": "Школа", "name_int": "School", "description_ru": "Дореволюционное школьное здание, уколхожено", "description_int": "School building", "cool": "1", "start_date": "1888", "wikidata": null, "architector1": "", "architector2": "", "demolished": 0, "ngw_id": 26 }, "geometry": { "type": "Point", "coordinates": [ 37.859915365824342, 55.761382140613918 ] } },
{ "type": "Feature", "properties": { "name": "Третья казарма", "name_int": "", "description_ru": "Третья казарма. Не оштукатурено. Крыша переделана.", "description_int": "Barracks #3. Not plaster.", "cool": "3", "start_date": "1881", "wikidata": null, "architector1": "", "architector2": "", "demolished": 0, "ngw_id": 27 }, "geometry": { "type": "Point", "coordinates": [ 37.857602203967737, 55.760295453662231 ] } },
{ "type": "Feature", "properties": { "name": "Административное здание", "name_int": "", "description_ru": "Конструктивистское здание администрации протезного завода", "description_int": "Constructivist adminstrative building of factory", "cool": "2", "start_date": "1920s", "wikidata": null, "architector1": "", "architector2": "", "demolished": 0, "ngw_id": 28 }, "geometry": { "type": "Point", "coordinates": [ 37.855091412748621, 55.759608045349417 ] } },
{ "type": "Feature", "properties": { "name": "Газосветная вывеска Ателье", "name_int": "", "description_ru": "снесли в 2016-2018", "description_int": "", "cool": "-1", "start_date": "", "wikidata": null, "architector1": "", "architector2": "", "demolished": 0, "ngw_id": 29 }, "geometry": { "type": "Point", "coordinates": [ 37.859273070396199, 55.753875801332782 ] } },
{ "type": "Feature", "properties": { "name": "Дореволюционная фабрика", "name_int": "", "description_ru": ". Счищают краску 2018-05, если счистят всю, то будет лучше.", "description_int": "1800-s factory building", "cool": "2.5", "start_date": "", "wikidata": null, "architector1": "", "architector2": "", "demolished": 0, "ngw_id": 30 }, "geometry": { "type": "Point", "coordinates": [ 37.864249737070217, 55.75877404105438 ] } },
{ "type": "Feature", "properties": { "name": "", "name_int": "", "description_ru": "Вид на фабричный цех", "description_int": "View to factory building", "cool": "3", "start_date": "", "wikidata": null, "architector1": "", "architector2": "", "demolished": 0, "ngw_id": 31 }, "geometry": { "type": "Point", "coordinates": [ 37.86461355476029, 55.759522118458321 ] } },
{ "type": "Feature", "properties": { "name": "", "name_int": "", "description_ru": "Дом управляющего хлопкопрядильной фабрики. 3-й этаж надстроен в 90-х, старались, но вышло не очень.", "description_int": "House of factory director. 3rd floor build in 1990-s", "cool": "2.5", "start_date": "1850", "wikidata": null, "architector1": "", "architector2": "", "demolished": 0, "ngw_id": 32 }, "geometry": { "type": "Point", "coordinates": [ 37.861222414562739, 55.75941344594257 ] } },
{ "type": "Feature", "properties": { "name": "Тут была общага, но её снесли в 2010-х", "name_int": "", "description_ru": "", "description_int": "", "cool": "-1", "start_date": "", "wikidata": null, "architector1": "", "architector2": "", "demolished": 0, "ngw_id": 33 }, "geometry": { "type": "Point", "coordinates": [ 37.86070588327437, 55.75726520614549 ] } },
{ "type": "Feature", "properties": { "name": "Возможно конструктивистское здание, не видно, заросло деревьями", "name_int": "", "description_ru": "", "description_int": "", "cool": "2", "start_date": "", "wikidata": null, "architector1": "", "architector2": "", "demolished": 0, "ngw_id": 34 }, "geometry": { "type": "Point", "coordinates": [ 37.861994965707083, 55.754747824000546 ] } },
{ "type": "Feature", "properties": { "name": "Глухое пересечение путей под 90 градусов, вероятно разобрано в 2005-2015", "name_int": "", "description_ru": "", "description_int": "", "cool": "1", "start_date": "", "wikidata": null, "architector1": "", "architector2": "", "demolished": 0, "ngw_id": 35 }, "geometry": { "type": "Point", "coordinates": [ 37.867101888097302, 55.773174536956269 ] } },
{ "type": "Feature", "properties": { "name": "Центр управления полётами", "name_int": "Space flight control center", "description_ru": "", "description_int": "", "cool": "2", "start_date": "", "wikidata": null, "architector1": "", "architector2": "", "demolished": 0, "ngw_id": 36 }, "geometry": { "type": "Point", "coordinates": [ 37.81026548007106, 55.912892383517196 ] } },
{ "type": "Feature", "properties": { "name": "", "name_int": "", "description_ru": "Конструктивистский посёлок завода", "description_int": "", "cool": "3", "start_date": "", "wikidata": null, "architector1": "", "architector2": "", "demolished": 0, "ngw_id": 37 }, "geometry": { "type": "Point", "coordinates": [ 37.810898792346364, 55.924598652314991 ] } },
{ "type": "Feature", "properties": { "name": "Конструктивистский дом, продвинутый", "name_int": "Constructivist apartments", "description_ru": "", "description_int": "", "cool": "4", "start_date": "", "wikidata": null, "architector1": "", "architector2": "", "demolished": 0, "ngw_id": 38 }, "geometry": { "type": "Point", "coordinates": [ 37.808329610633784, 55.920836218691107 ] } },
{ "type": "Feature", "properties": { "name": "Конструкиивистское здание на заводе, вероятно общежитие", "name_int": "Constructivist apartments", "description_ru": "Точно так же как на Уралмаше", "description_int": "", "cool": "2", "start_date": "", "wikidata": null, "architector1": "", "architector2": "", "demolished": 0, "ngw_id": 39 }, "geometry": { "type": "Point", "coordinates": [ 37.804821689449298, 55.920919273007421 ] } },
{ "type": "Feature", "properties": { "name": "", "name_int": "", "description_ru": "Конструктивистская фабрика-кухня", "description_int": "", "cool": "3", "start_date": "", "wikidata": null, "architector1": "", "architector2": "", "demolished": 0, "ngw_id": 40 }, "geometry": { "type": "Point", "coordinates": [ 37.806546454794805, 55.91882776013076 ] } },
{ "type": "Feature", "properties": { "name": "", "name_int": "", "description_ru": "Конструктивистское общественное здание", "description_int": "", "cool": "2.5", "start_date": "", "wikidata": null, "architector1": "", "architector2": "", "demolished": 0, "ngw_id": 41 }, "geometry": { "type": "Point", "coordinates": [ 37.814438154565799, 55.920768265027206 ] } },
{ "type": "Feature", "properties": { "name": "Офисное здание 1980-х", "name_int": "", "description_ru": "", "description_int": "", "cool": "3", "start_date": "", "wikidata": null, "architector1": "", "architector2": "", "demolished": 0, "ngw_id": 42 }, "geometry": { "type": "Point", "coordinates": [ 37.816957928937747, 55.912391434411255 ] } },
{ "type": "Feature", "properties": { "name": "Гостиница и дома ЦУПа", "name_int": "", "description_ru": "", "description_int": "", "cool": "2.5", "start_date": "", "wikidata": null, "architector1": "", "architector2": "", "demolished": 0, "ngw_id": 43 }, "geometry": { "type": "Point", "coordinates": [ 37.814532477670625, 55.911432312788641 ] } },
{ "type": "Feature", "properties": { "name": "Фабрика-кухня НИИ 1970-х", "name_int": "", "description_ru": "", "description_int": "", "cool": "4", "start_date": "", "wikidata": null, "architector1": "", "architector2": "", "demolished": 0, "ngw_id": 44 }, "geometry": { "type": "Point", "coordinates": [ 37.812398978870839, 55.911673983464794 ] } },
{ "type": "Feature", "properties": { "name": "ЗАГС во вставке между пристройками, с железной фигурой", "name_int": "", "description_ru": "", "description_int": "", "cool": "1.5", "start_date": "", "wikidata": null, "architector1": "", "architector2": "", "demolished": 0, "ngw_id": 45 }, "geometry": { "type": "Point", "coordinates": [ 37.841010320670051, 55.920823634688269 ] } },
{ "type": "Feature", "properties": { "name": "", "name_int": "", "description_ru": "", "description_int": "", "cool": "Пристроенный торговый дом с подземными переходами под зданием", "start_date": "", "wikidata": null, "architector1": "", "architector2": "", "demolished": 0, "ngw_id": 46 }, "geometry": { "type": "Point", "coordinates": [ 37.838661226202078, 55.920604672384776 ] } },
{ "type": "Feature", "properties": { "name": "Абстрактные мозайки", "name_int": "", "description_ru": "", "description_int": "", "cool": "2", "start_date": "", "wikidata": null, "architector1": "", "architector2": "", "demolished": 0, "ngw_id": 47 }, "geometry": { "type": "Point", "coordinates": [ 37.842330844137706, 55.919041698638679 ] } },
{ "type": "Feature", "properties": { "name": "test", "name_int": "", "description_ru": "", "description_int": "", "cool": "3", "start_date": "", "wikidata": null, "architector1": "", "architector2": "", "demolished": 0, "ngw_id": 48 }, "geometry": { "type": "Point", "coordinates": [ 132.027562246880791, 42.412923618058933 ] } },
{ "type": "Feature", "properties": { "name": null, "name_int": null, "description_ru": "Крытый спорткомплекс", "description_int": null, "cool": "3", "start_date": null, "wikidata": null, "architector1": null, "architector2": null, "demolished": 0, "ngw_id": 49 }, "geometry": { "type": "Point", "coordinates": [ 131.876285953035051, 43.123347634509756 ] } },
{ "type": "Feature", "properties": { "name": "Рабочая казарма", "name_int": "Workers barrack", "description_ru": "", "description_int": "Red brick", "cool": "4", "start_date": "1893", "wikidata": null, "architector1": "", "architector2": "", "demolished": 0, "ngw_id": 50 }, "geometry": { "type": "Point", "coordinates": [ 39.07639595727332, 55.865336323974326 ] } },
{ "type": "Feature", "properties": { "name": "Рабочая казарма, очень старая", "name_int": "Workers barrack, very old", "description_ru": "", "description_int": "", "cool": "4", "start_date": "", "wikidata": null, "architector1": "", "architector2": "", "demolished": 0, "ngw_id": 51 }, "geometry": { "type": "Point", "coordinates": [ 39.075481204899638, 55.864094892001212 ] } },
{ "type": "Feature", "properties": { "name": "Рабочая казарма", "name_int": "Workers barrack", "description_ru": "Уколхожена, надстроена мансарда", "description_int": "", "cool": "2", "start_date": "", "wikidata": null, "architector1": "", "architector2": "", "demolished": 0, "ngw_id": 52 }, "geometry": { "type": "Point", "coordinates": [ 39.074671191927806, 55.86454742995442 ] } },
{ "type": "Feature", "properties": { "name": "Многоквартирный дом", "name_int": "Apartments", "description_ru": "Краснокирпичный дом конца 1920-х годов с идеальными пропорциями", "description_int": "Red brick 1920s house with ideal proportions", "cool": "4", "start_date": "1920s", "wikidata": null, "architector1": null, "architector2": null, "demolished": 0, "ngw_id": 53 }, "geometry": { "type": "Point", "coordinates": [ 39.078953074616393, 55.865550152148607 ] } },
{ "type": "Feature", "properties": { "name": "Многоквартирный дом", "name_int": "Apartments", "description_ru": null, "description_int": null, "cool": "2", "start_date": "1920s", "wikidata": null, "architector1": null, "architector2": null, "demolished": 0, "ngw_id": 54 }, "geometry": { "type": "Point", "coordinates": [ 39.078725397421692, 55.866182213132632 ] } },
{ "type": "Feature", "properties": { "name": "Детские ясли", "name_int": "Kindergarden building", "description_ru": "Здание детского сада 1920-х годов, простое. Украшено колоннами. Используется как общественное.", "description_int": null, "cool": "3", "start_date": "1920s", "wikidata": null, "architector1": null, "architector2": null, "demolished": 0, "ngw_id": 55 }, "geometry": { "type": "Point", "coordinates": [ 39.081912878147492, 55.867459751801604 ] } },
{ "type": "Feature", "properties": { "name": "Городищенская отделочная фабрика", "name_int": "Gorodishi fabric decoration works", "description_ru": "На улицу выходит стена старого корпуса и панельная проходная", "description_int": null, "cool": "3.5", "start_date": "1880", "wikidata": null, "architector1": null, "architector2": null, "demolished": 0, "ngw_id": 56 }, "geometry": { "type": "Point", "coordinates": [ 39.072366413317241, 55.86463566273229 ] } },
{ "type": "Feature", "properties": { "name": "Заброшенный торговый центр Аквилон", "name_int": "Abandoned mall", "description_ru": "Открыто в 2004 после перестройки из советского дворца культуры. Закрыто в 2011. Снесён?", "description_int": "Open in 2004 after rebuild from soviet Culture Center. Closed in 2011", "cool": "-1", "start_date": "2004", "wikidata": null, "architector1": null, "architector2": null, "demolished": 0, "ngw_id": 57 }, "geometry": { "type": "Point", "coordinates": [ 38.982504997620261, 55.807231761653433 ] } },
{ "type": "Feature", "properties": { "name": "Зимний театр", "name_int": null, "description_ru": null, "description_int": null, "cool": "5", "start_date": "1911", "wikidata": null, "architector1": null, "architector2": null, "demolished": 0, "ngw_id": 58 }, "geometry": { "type": "Point", "coordinates": [ 38.994677467953657, 55.802947158516943 ] } },
{ "type": "Feature", "properties": { "name": "Богадельня Морозовской мануфактуры", "name_int": "Almshouse of the Morozov Manufactory", "description_ru": null, "description_int": null, "cool": "3", "start_date": null, "wikidata": null, "architector1": null, "architector2": null, "demolished": 0, "ngw_id": 59 }, "geometry": { "type": "Point", "coordinates": [ 39.012212921292786, 55.799076294201932 ] } },
{ "type": "Feature", "properties": { "name": "Водонапорная башня", "name_int": "Water tower", "description_ru": null, "description_int": null, "cool": "5", "start_date": null, "wikidata": null, "architector1": null, "architector2": null, "demolished": 0, "ngw_id": 60 }, "geometry": { "type": "Point", "coordinates": [ 38.993517535242596, 55.803550508247497 ] } },
{ "type": "Feature", "properties": { "name": "Казарма №2", "name_int": "Barracks 2", "description_ru": "Самая красивая, с жёлтым кирпичом", "description_int": "Most", "cool": "5", "start_date": "1908", "wikidata": null, "architector1": null, "architector2": null, "demolished": 0, "ngw_id": 61 }, "geometry": { "type": "Point", "coordinates": [ 38.992876160684631, 55.803041752101215 ] } },
{ "type": "Feature", "properties": { "name": "Фабричное здание с шедами", "name_int": null, "description_ru": null, "description_int": null, "cool": "2.5", "start_date": null, "wikidata": null, "architector1": null, "architector2": null, "demolished": 0, "ngw_id": 62 }, "geometry": { "type": "Point", "coordinates": [ 38.984761180462286, 55.79997373492408 ] } },
{ "type": "Feature", "properties": { "name": "Фабричное здание", "name_int": "Factory building", "description_ru": "Можно зайти внутрь на лестницу", "description_int": "Free entrance to staircase, using as offices", "cool": "4", "start_date": null, "wikidata": null, "architector1": null, "architector2": null, "demolished": 0, "ngw_id": 63 }, "geometry": { "type": "Point", "coordinates": [ 38.988463867626521, 55.805802760869334 ] } },
{ "type": "Feature", "properties": { "name": "Главное здание больницы", "name_int": "Main building of hospital", "description_ru": null, "description_int": null, "cool": "3", "start_date": null, "wikidata": null, "architector1": null, "architector2": null, "demolished": 0, "ngw_id": 64 }, "geometry": { "type": "Point", "coordinates": [ 38.99770693926984, 55.801551237283661 ] } },
{ "type": "Feature", "properties": { "name": "Больничный корпус 1980-х годов", "name_int": "1980s hospital building", "description_ru": null, "description_int": null, "cool": "3", "start_date": "1980s", "wikidata": null, "architector1": null, "architector2": null, "demolished": 0, "ngw_id": 65 }, "geometry": { "type": "Point", "coordinates": [ 38.996974589597293, 55.801270001674098 ] } },
{ "type": "Feature", "properties": { "name": "Дом Стройбюро", "name_int": null, "description_ru": null, "description_int": null, "cool": "2", "start_date": "1930", "wikidata": null, "architector1": "Лангман А", "architector2": "Чериковер Л", "demolished": 0, "ngw_id": 66 }, "geometry": { "type": "Point", "coordinates": [ 37.855700254440293, 55.911118397537798 ] } },
{ "type": "Feature", "properties": { "name": "Техникум", "name_int": null, "description_ru": null, "description_int": null, "cool": "1", "start_date": "1930s", "wikidata": null, "architector1": "Лангман А", "architector2": "Чериковер Л", "demolished": 0, "ngw_id": 67 }, "geometry": { "type": "Point", "coordinates": [ 37.859058380126967, 55.910499024775916 ] } },
{ "type": "Feature", "properties": { "name": "Универмаг", "name_int": null, "description_ru": null, "description_int": null, "cool": "3", "start_date": "1933", "wikidata": null, "architector1": "Лангман А", "architector2": "Чериковер Л", "demolished": 0, "ngw_id": 68 }, "geometry": { "type": "Point", "coordinates": [ 37.856944799423232, 55.912802079316016 ] } },
{ "type": "Feature", "properties": { "name": "Фабрика-кухня", "name_int": null, "description_ru": null, "description_int": null, "cool": "1", "start_date": "1931", "wikidata": null, "architector1": "Лангман А", "architector2": "Чериковер Л", "demolished": 0, "ngw_id": 69 }, "geometry": { "type": "Point", "coordinates": [ 37.856601476669347, 55.910883878917964 ] } },
{ "type": "Feature", "properties": { "name": "Жилой дом", "name_int": null, "description_ru": null, "description_int": null, "cool": "2", "start_date": "1935-1936", "wikidata": null, "architector1": "Лангман А", "architector2": "Чериковер Л", "demolished": 0, "ngw_id": 70 }, "geometry": { "type": "Point", "coordinates": [ 37.856247425079374, 55.917696367573122 ] } },
{ "type": "Feature", "properties": { "name": "Больница", "name_int": "Hospital", "description_ru": null, "description_int": null, "cool": "2", "start_date": "1932", "wikidata": null, "architector1": "Лангман А", "architector2": "Чериковер Л", "demolished": 0, "ngw_id": 71 }, "geometry": { "type": "Point", "coordinates": [ 37.857449054718053, 55.917452870293545 ] } },
{ "type": "Feature", "properties": { "name": "Сарай больничный", "name_int": "Barn of hospital", "description_ru": null, "description_int": null, "cool": "1", "start_date": "1930-1935", "wikidata": null, "architector1": "Лангман А", "architector2": "Чериковер Л", "demolished": 0, "ngw_id": 72 }, "geometry": { "type": "Point", "coordinates": [ 37.85778164863585, 55.916508928111568 ] } },
{ "type": "Feature", "properties": { "name": "Общежитие Чикаго", "name_int": null, "description_ru": "Конструктивистское здание из силикатного кирпича. Заброшено, крыша провалилась.", "description_int": null, "cool": "4", "start_date": "1930s", "wikidata": null, "architector1": "Лангман А", "architector2": "Чериковер Л", "demolished": 0, "ngw_id": 73 }, "geometry": { "type": "Point", "coordinates": [ 37.855737805366552, 55.916424753807206 ] } },
{ "type": "Feature", "properties": { "name": "Общежитие Сан-Франциско", "name_int": null, "description_ru": null, "description_int": null, "cool": "1", "start_date": "1930s", "wikidata": null, "architector1": "Лангман А", "architector2": "Чериковер Л", "demolished": 0, "ngw_id": 74 }, "geometry": { "type": "Point", "coordinates": [ 37.857888936996446, 55.915222243790403 ] } },
{ "type": "Feature", "properties": { "name": "Детский сад", "name_int": "Kindergarden", "description_ru": null, "description_int": null, "cool": "2", "start_date": "1932", "wikidata": null, "architector1": "Лангман А", "architector2": "Чериковер Л", "demolished": 0, "ngw_id": 75 }, "geometry": { "type": "Point", "coordinates": [ 37.859707474708557, 55.915261325952429 ] } },
{ "type": "Feature", "properties": { "name": "Производственное строение Болшевской трудовой коммуны", "name_int": null, "description_ru": null, "description_int": null, "cool": "0", "start_date": "1930s", "wikidata": null, "architector1": "Лангман А", "architector2": "Чериковер Л", "demolished": 0, "ngw_id": 76 }, "geometry": { "type": "Point", "coordinates": [ 37.85221874713902, 55.912444303055331 ] } },
{ "type": "Feature", "properties": { "name": "Барак Болшевской трудовой коммуны", "name_int": null, "description_ru": null, "description_int": null, "cool": "0", "start_date": "1930s", "wikidata": null, "architector1": "Лангман А", "architector2": "Чериковер Л", "demolished": 0, "ngw_id": 77 }, "geometry": { "type": "Point", "coordinates": [ 37.855217456817641, 55.910709492358102 ] } },
{ "type": "Feature", "properties": { "name": "Спорткомплекс", "name_int": "Sports center", "description_ru": null, "description_int": null, "cool": "-1", "start_date": "1930s", "wikidata": null, "architector1": null, "architector2": null, "demolished": 0, "ngw_id": 78 }, "geometry": { "type": "Point", "coordinates": [ 37.856655120849602, 55.910222408501994 ] } },
{ "type": "Feature", "properties": { "name": "Фабричная казарма", "name_int": "Factory dormitory", "description_ru": null, "description_int": null, "cool": "3", "start_date": "1890s", "wikidata": null, "architector1": null, "architector2": null, "demolished": 0, "ngw_id": 79 }, "geometry": { "type": "Point", "coordinates": [ 37.479021549224875, 56.296490992604546 ] } },
{ "type": "Feature", "properties": { "name": "Жилой дом", "name_int": null, "description_ru": null, "description_int": null, "cool": "3", "start_date": "1920s", "wikidata": null, "architector1": null, "architector2": null, "demolished": 0, "ngw_id": 80 }, "geometry": { "type": "Point", "coordinates": [ 37.476875782012968, 56.296205229221975 ] } },
{ "type": "Feature", "properties": { "name": "Жилой дом", "name_int": null, "description_ru": null, "description_int": null, "cool": "3", "start_date": "1920s", "wikidata": null, "architector1": null, "architector2": null, "demolished": 0, "ngw_id": 81 }, "geometry": { "type": "Point", "coordinates": [ 37.475695610046373, 56.296062346729443 ] } },
{ "type": "Feature", "properties": { "name": "Фабричная казарма", "name_int": "Factory dormitory", "description_ru": null, "description_int": null, "cool": "3", "start_date": null, "wikidata": null, "architector1": null, "architector2": null, "demolished": 0, "ngw_id": 82 }, "geometry": { "type": "Point", "coordinates": [ 37.484353780746503, 56.288435218471712 ] } },
{ "type": "Feature", "properties": { "name": "Дом с лавками", "name_int": null, "description_ru": null, "description_int": null, "cool": "3", "start_date": "", "wikidata": null, "architector1": null, "architector2": null, "demolished": 0, "ngw_id": 83 }, "geometry": { "type": "Point", "coordinates": [ 37.483270168304422, 56.290388289322593 ] } },
{ "type": "Feature", "properties": { "name": "Жилой дом", "name_int": null, "description_ru": null, "description_int": null, "cool": "3", "start_date": "1920s", "wikidata": null, "architector1": null, "architector2": null, "demolished": 0, "ngw_id": 84 }, "geometry": { "type": "Point", "coordinates": [ 37.48616695404052, 56.287226408168259 ] } },
{ "type": "Feature", "properties": { "name": "Жилой дом", "name_int": null, "description_ru": null, "description_int": null, "cool": "3", "start_date": "1929..1931", "wikidata": null, "architector1": "В.И.Панков", "architector2": null, "demolished": 0, "ngw_id": 85 }, "geometry": { "type": "Point", "coordinates": [ 40.973038673400872, 57.015006276142664 ] } },
{ "type": "Feature", "properties": { "name": "Дом Губжилсоюза", "name_int": null, "description_ru": null, "description_int": null, "cool": "2,5", "start_date": "1929..1931", "wikidata": null, "architector1": "АСНОВА", "architector2": null, "demolished": 0, "ngw_id": 86 }, "geometry": { "type": "Point", "coordinates": [ 40.970560312271076, 57.014912820248085 ] } },
{ "type": "Feature", "properties": { "name": "Жилой дом", "name_int": null, "description_ru": null, "description_int": null, "cool": "3", "start_date": "1920s", "wikidata": null, "architector1": null, "architector2": null, "demolished": 0, "ngw_id": 87 }, "geometry": { "type": "Point", "coordinates": [ 40.973660945892377, 57.015546563429417 ] } },
{ "type": "Feature", "properties": { "name": "Школа", "name_int": "School", "description_ru": null, "description_int": null, "cool": "3", "start_date": "1932", "wikidata": null, "architector1": "В.И.Панков", "architector2": null, "demolished": 0, "ngw_id": 88 }, "geometry": { "type": "Point", "coordinates": [ 40.968747138977065, 57.016194897811644 ] } },
{ "type": "Feature", "properties": { "name": "Усадьба М. С. Удина", "name_int": null, "description_ru": null, "description_int": null, "cool": "3", "start_date": "1900s", "wikidata": null, "architector1": null, "architector2": null, "demolished": 0, "ngw_id": 89 }, "geometry": { "type": "Point", "coordinates": [ 40.964611172676108, 57.01628250969906 ] } },
{ "type": "Feature", "properties": { "name": "Дом-Корабль", "name_int": null, "description_ru": null, "description_int": null, "cool": "3", "start_date": "1929..1930", "wikidata": null, "architector1": "Д.Ф.Фридман", "architector2": null, "demolished": 0, "ngw_id": 90 }, "geometry": { "type": "Point", "coordinates": [ 40.968843698501573, 57.014547755909206 ] } },
{ "type": "Feature", "properties": { "name": "Пром", "name_int": null, "description_ru": null, "description_int": null, "cool": "4", "start_date": null, "wikidata": null, "architector1": null, "architector2": null, "demolished": 0, "ngw_id": 91 }, "geometry": { "type": "Point", "coordinates": [ 41.097707748413093, 56.932419567079172 ] } },
{ "type": "Feature", "properties": { "name": "Детский сад", "name_int": "Kindergarden", "description_ru": null, "description_int": null, "cool": "2", "start_date": null, "wikidata": null, "architector1": null, "architector2": null, "demolished": 0, "ngw_id": 93 }, "geometry": { "type": "Point", "coordinates": [ 40.957320928573601, 57.000047423604052 ] } },
{ "type": "Feature", "properties": { "name": "Жилой дом", "name_int": null, "description_ru": null, "description_int": null, "cool": "2", "start_date": "1920s", "wikidata": null, "architector1": null, "architector2": null, "demolished": 0, "ngw_id": 94 }, "geometry": { "type": "Point", "coordinates": [ 40.98199725151062, 56.999731882150705 ] } },
{ "type": "Feature", "properties": { "name": "Жилой дом", "name_int": null, "description_ru": null, "description_int": null, "cool": "3", "start_date": "1920s", "wikidata": null, "architector1": null, "architector2": null, "demolished": 0, "ngw_id": 95 }, "geometry": { "type": "Point", "coordinates": [ 40.980393290519714, 57.000792441417694 ] } },
{ "type": "Feature", "properties": { "name": "Особняк в стиле модерн без штукатурки", "name_int": null, "description_ru": null, "description_int": null, "cool": "3,5", "start_date": "1900s", "wikidata": null, "architector1": null, "architector2": null, "demolished": 0, "ngw_id": 96 }, "geometry": { "type": "Point", "coordinates": [ 40.978354811668417, 56.998823224684607 ] } },
{ "type": "Feature", "properties": { "name": "Жилой дом", "name_int": null, "description_ru": null, "description_int": null, "cool": "2", "start_date": "1920s", "wikidata": null, "architector1": null, "architector2": null, "demolished": 0, "ngw_id": 97 }, "geometry": { "type": "Point", "coordinates": [ 40.94975709915164, 57.007450193117876 ] } },
{ "type": "Feature", "properties": { "name": "Вокзал", "name_int": "Train station", "description_ru": null, "description_int": null, "cool": "2,5", "start_date": "1930-1934", "wikidata": null, "architector1": "В. М. Каверинский", "architector2": "", "demolished": 0, "ngw_id": 98 }, "geometry": { "type": "Point", "coordinates": [ 40.979754924774205, 57.017526576223055 ] } },
{ "type": "Feature", "properties": { "name": "Жилой дом - подкова", "name_int": null, "description_ru": null, "description_int": null, "cool": "3", "start_date": "1934", "wikidata": null, "architector1": "А. И. Панов", "architector2": null, "demolished": 0, "ngw_id": 99 }, "geometry": { "type": "Point", "coordinates": [ 40.9749323129654, 57.010914440298365 ] } },
{ "type": "Feature", "properties": { "name": "Жилой дом", "name_int": null, "description_ru": null, "description_int": null, "cool": "3", "start_date": "1931", "wikidata": null, "architector1": null, "architector2": null, "demolished": 0, "ngw_id": 100 }, "geometry": { "type": "Point", "coordinates": [ 40.978735685348553, 57.011136421529081 ] } },
{ "type": "Feature", "properties": { "name": "100-квартирный Дом Специалистов", "name_int": null, "description_ru": null, "description_int": null, "cool": "3", "start_date": "1935", "wikidata": null, "architector1": "А.Ф.Снурилов", "architector2": null, "demolished": 0, "ngw_id": 101 }, "geometry": { "type": "Point", "coordinates": [ 40.978966355323841, 57.010213438240548 ] } },
{ "type": "Feature", "properties": { "name": "Областное УВД", "name_int": null, "description_ru": null, "description_int": null, "cool": "2", "start_date": "1932", "wikidata": null, "architector1": "Н. И. Кадников", "architector2": null, "demolished": 0, "ngw_id": 102 }, "geometry": { "type": "Point", "coordinates": [ 40.971815586090102, 57.009325483333683 ] } },
{ "type": "Feature", "properties": { "name": "Жилой дом текстильного треста", "name_int": null, "description_ru": null, "description_int": null, "cool": "3", "start_date": "1933", "wikidata": null, "architector1": "С.Н.Грузенберг", "architector2": null, "demolished": 0, "ngw_id": 103 }, "geometry": { "type": "Point", "coordinates": [ 40.973242521285975, 57.007385929160883 ] } },
{ "type": "Feature", "properties": { "name": "Жилой дом", "name_int": null, "description_ru": null, "description_int": null, "cool": "3", "start_date": "1929", "wikidata": null, "architector1": "С.Н.Грузенберг", "architector2": null, "demolished": 0, "ngw_id": 104 }, "geometry": { "type": "Point", "coordinates": [ 40.973800420761059, 57.007713089967616 ] } },
{ "type": "Feature", "properties": { "name": "Жилой дом", "name_int": null, "description_ru": null, "description_int": null, "cool": "3,5", "start_date": "1929", "wikidata": null, "architector1": "С.Н.Грузенберг", "architector2": null, "demolished": 0, "ngw_id": 105 }, "geometry": { "type": "Point", "coordinates": [ 40.975205898284941, 57.007806563955249 ] } },
{ "type": "Feature", "properties": { "name": "Жилой дом", "name_int": null, "description_ru": null, "description_int": null, "cool": "3,5", "start_date": "1929", "wikidata": null, "architector1": "С.Н.Грузенберг", "architector2": null, "demolished": 0, "ngw_id": 106 }, "geometry": { "type": "Point", "coordinates": [ 40.975581407546997, 57.007438508770335 ] } },
{ "type": "Feature", "properties": { "name": "72-квартирный дом Горсовета", "name_int": null, "description_ru": null, "description_int": null, "cool": "3,5", "start_date": "1929, 1937", "wikidata": null, "architector1": "В.И.Панков", "architector2": null, "demolished": 0, "ngw_id": 107 }, "geometry": { "type": "Point", "coordinates": [ 40.976761579513592, 57.005417061401928 ] } },
{ "type": "Feature", "properties": { "name": "102-квартирный дом Горсовета", "name_int": null, "description_ru": null, "description_int": null, "cool": "3,5", "start_date": "1929", "wikidata": null, "architector1": "В.И.Панков", "architector2": "", "demolished": 0, "ngw_id": 108 }, "geometry": { "type": "Point", "coordinates": [ 40.972588062286377, 57.005341108926117 ] } },
{ "type": "Feature", "properties": { "name": "Госпиталь", "name_int": null, "description_ru": null, "description_int": null, "cool": "3", "start_date": null, "wikidata": null, "architector1": "", "architector2": null, "demolished": 0, "ngw_id": 109 }, "geometry": { "type": "Point", "coordinates": [ 40.973580479621859, 57.006255449581545 ] } },
{ "type": "Feature", "properties": { "name": "Дворец пионеров", "name_int": null, "description_ru": null, "description_int": null, "cool": "2,5", "start_date": null, "wikidata": null, "architector1": null, "architector2": null, "demolished": 0, "ngw_id": 110 }, "geometry": { "type": "Point", "coordinates": [ 40.97683131694793, 57.004412139174804 ] } },
{ "type": "Feature", "properties": { "name": "Гостиница \"Центральная\"", "name_int": null, "description_ru": null, "description_int": null, "cool": "3,5", "start_date": "1935", "wikidata": null, "architector1": null, "architector2": null, "demolished": 0, "ngw_id": 111 }, "geometry": { "type": "Point", "coordinates": [ 40.980505943298311, 56.997207454189727 ] } },
{ "type": "Feature", "properties": { "name": "Комплекс общежитий ИВПИ", "name_int": null, "description_ru": null, "description_int": null, "cool": "2,7", "start_date": "1931", "wikidata": null, "architector1": "Н.А.Круглов", "architector2": "Б.А.Кондрашев", "demolished": 0, "ngw_id": 112 }, "geometry": { "type": "Point", "coordinates": [ 40.986503362655725, 57.000999875095197 ] } },
{ "type": "Feature", "properties": { "name": "Административно-общественный корпус ИВПИ", "name_int": null, "description_ru": null, "description_int": null, "cool": "2,7", "start_date": "1934", "wikidata": null, "architector1": "Н.А.Круглов", "architector2": "Б.А.Кондрашев", "demolished": 0, "ngw_id": 113 }, "geometry": { "type": "Point", "coordinates": [ 40.987254381179831, 57.001455640803307 ] } },
{ "type": "Feature", "properties": { "name": "Общежитие №1 ИвГМА", "name_int": null, "description_ru": null, "description_int": null, "cool": "3,5", "start_date": "1933", "wikidata": null, "architector1": "С.К.Жук", "architector2": null, "demolished": 0, "ngw_id": 114 }, "geometry": { "type": "Point", "coordinates": [ 40.988080501556368, 56.99507441282428 ] } },
{ "type": "Feature", "properties": { "name": "Парашютная фабрика \"Полёт\"", "name_int": null, "description_ru": null, "description_int": null, "cool": "1", "start_date": null, "wikidata": null, "architector1": null, "architector2": "", "demolished": 0, "ngw_id": 115 }, "geometry": { "type": "Point", "coordinates": [ 40.975527763366742, 56.992462001092989 ] } },
{ "type": "Feature", "properties": { "name": "Жилой дом РЖСКТ \"Прогресс\" ", "name_int": null, "description_ru": null, "description_int": null, "cool": "3", "start_date": null, "wikidata": null, "architector1": "В.И.Панков", "architector2": null, "demolished": 0, "ngw_id": 116 }, "geometry": { "type": "Point", "coordinates": [ 40.97671866416934, 56.993046449170649 ] } },
{ "type": "Feature", "properties": { "name": "Дом служащих Госбанка", "name_int": null, "description_ru": null, "description_int": null, "cool": "3", "start_date": "1934", "wikidata": null, "architector1": "С. А. МИнофьев", "architector2": null, "demolished": 0, "ngw_id": 117 }, "geometry": { "type": "Point", "coordinates": [ 40.976203680038417, 56.993379580468385 ] } },
{ "type": "Feature", "properties": { "name": "Ивсельбанк", "name_int": null, "description_ru": null, "description_int": null, "cool": "1,5", "start_date": "1920s", "wikidata": null, "architector1": "В.А. Веснин", "architector2": null, "demolished": 0, "ngw_id": 118 }, "geometry": { "type": "Point", "coordinates": [ 40.975753068923936, 56.994408177587751 ] } },
{ "type": "Feature", "properties": { "name": "Жилой дом треста \"Росглавхлеб\"", "name_int": null, "description_ru": null, "description_int": null, "cool": "2", "start_date": "1948", "wikidata": null, "architector1": "В.И.Панков", "architector2": null, "demolished": 0, "ngw_id": 119 }, "geometry": { "type": "Point", "coordinates": [ 40.972845554351835, 56.994904933061882 ] } },
{ "type": "Feature", "properties": { "name": "Успенская деревянная кладбищенская церковь", "name_int": null, "description_ru": null, "description_int": null, "cool": "2,5", "start_date": "1906", "wikidata": null, "architector1": null, "architector2": null, "demolished": 0, "ngw_id": 120 }, "geometry": { "type": "Point", "coordinates": [ 40.96652626991272, 57.02800895775249 ] } },
{ "type": "Feature", "properties": { "name": "Жилые дома", "name_int": null, "description_ru": null, "description_int": null, "cool": "3", "start_date": "1930s", "wikidata": null, "architector1": null, "architector2": null, "demolished": 0, "ngw_id": 121 }, "geometry": { "type": "Point", "coordinates": [ 41.001148223876903, 56.995536095158528 ] } },
{ "type": "Feature", "properties": { "name": "Башня завода Микрон", "name_int": null, "description_ru": null, "description_int": null, "cool": "3", "start_date": null, "wikidata": null, "architector1": null, "architector2": null, "demolished": 0, "ngw_id": 122 }, "geometry": { "type": "Point", "coordinates": [ 37.191982269287109, 56.013149493473513 ] } },
{ "type": "Feature", "properties": { "name": "Цеха завода Микрон", "name_int": null, "description_ru": null, "description_int": null, "cool": "3", "start_date": null, "wikidata": null, "architector1": null, "architector2": null, "demolished": 0, "ngw_id": 123 }, "geometry": { "type": "Point", "coordinates": [ 37.192218303680384, 56.014181040669285 ] } },
{ "type": "Feature", "properties": { "name": "НИТИМ", "name_int": null, "description_ru": null, "description_int": null, "cool": "3", "start_date": null, "wikidata": null, "architector1": null, "architector2": null, "demolished": 0, "ngw_id": 124 }, "geometry": { "type": "Point", "coordinates": [ 37.202292680740307, 56.012123916336655 ] } },
{ "type": "Feature", "properties": { "name": "Корпус 207", "name_int": null, "description_ru": null, "description_int": null, "cool": "2", "start_date": "2007", "wikidata": null, "architector1": null, "architector2": null, "demolished": 0, "ngw_id": 125 }, "geometry": { "type": "Point", "coordinates": [ 37.207485437393174, 56.002322583741872 ] } },
{ "type": "Feature", "properties": { "name": "Торговый центр", "name_int": null, "description_ru": null, "description_int": null, "cool": "1.5", "start_date": null, "wikidata": null, "architector1": null, "architector2": null, "demolished": 0, "ngw_id": 126 }, "geometry": { "type": "Point", "coordinates": [ 37.210575342178387, 56.001974632726814 ] } },
{ "type": "Feature", "properties": { "name": "Дом-флейта", "name_int": null, "description_ru": null, "description_int": null, "cool": "3", "start_date": "1969", "wikidata": null, "architector1": "Феликс Новиков", "architector2": null, "demolished": 0, "ngw_id": 127 }, "geometry": { "type": "Point", "coordinates": [ 37.219448089599638, 55.992137721359796 ] } },
{ "type": "Feature", "properties": { "name": "МИЭТ", "name_int": null, "description_ru": null, "description_int": null, "cool": "2", "start_date": "1971", "wikidata": null, "architector1": "Феликс Новиков", "architector2": null, "demolished": 0, "ngw_id": 128 }, "geometry": { "type": "Point", "coordinates": [ 37.208300828933716, 55.983324675109664 ] } },
{ "type": "Feature", "properties": { "name": "Торговый центр", "name_int": null, "description_ru": null, "description_int": null, "cool": "3", "start_date": null, "wikidata": null, "architector1": "", "architector2": "", "demolished": 0, "ngw_id": 129 }, "geometry": { "type": "Point", "coordinates": [ 37.221132516860969, 55.990808541361673 ] } },
{ "type": "Feature", "properties": { "name": "Дворец культуры", "name_int": null, "description_ru": null, "description_int": null, "cool": "2.4", "start_date": null, "wikidata": null, "architector1": null, "architector2": null, "demolished": 0, "ngw_id": 130 }, "geometry": { "type": "Point", "coordinates": [ 37.220038175582886, 55.989596337367161 ] } },
{ "type": "Feature", "properties": { "name": "Администрация Зеленограда", "name_int": null, "description_ru": null, "description_int": null, "cool": "3", "start_date": null, "wikidata": null, "architector1": null, "architector2": null, "demolished": 0, "ngw_id": 131 }, "geometry": { "type": "Point", "coordinates": [ 37.2149848937988, 55.99059850873838 ] } },
{ "type": "Feature", "properties": { "name": "Ангстрем", "name_int": null, "description_ru": null, "description_int": null, "cool": "4.5", "start_date": null, "wikidata": null, "architector1": null, "architector2": null, "demolished": 0, "ngw_id": 132 }, "geometry": { "type": "Point", "coordinates": [ 37.213751077651942, 55.984477056802248 ] } },
{ "type": "Feature", "properties": { "name": "Э-187", "name_int": null, "description_ru": null, "description_int": null, "cool": "2.9", "start_date": "1999", "wikidata": null, "architector1": null, "architector2": null, "demolished": 0, "ngw_id": 133 }, "geometry": { "type": "Point", "coordinates": [ 37.165310382843032, 55.97803648337095 ] } },
{ "type": "Feature", "properties": { "name": "Дом контор", "name_int": "Office building", "description_ru": null, "description_int": null, "cool": "2.5", "start_date": "1930", "wikidata": null, "architector1": "Владимир Иванович Смирнов", "architector2": null, "demolished": 0, "ngw_id": 134 }, "geometry": { "type": "Point", "coordinates": [ 60.599464774131782, 56.833805541529372 ] } },
{ "type": "Feature", "properties": { "name": "Гостиница Исеть", "name_int": null, "description_ru": null, "description_int": null, "cool": "2.5", "start_date": null, "wikidata": null, "architector1": null, "architector2": null, "demolished": 0, "ngw_id": 135 }, "geometry": { "type": "Point", "coordinates": [ 60.62095463275908, 56.84064865769998 ] } },
{ "type": "Feature", "properties": { "name": "Фабрика-кухня", "name_int": null, "description_ru": null, "description_int": null, "cool": "1.9", "start_date": null, "wikidata": null, "architector1": null, "architector2": null, "demolished": 0, "ngw_id": 136 }, "geometry": { "type": "Point", "coordinates": [ 60.60776352882386, 56.849171459119759 ] } },
{ "type": "Feature", "properties": { "name": "Заброшенная больница", "name_int": "Abandoned hospital", "description_ru": null, "description_int": null, "cool": "2.9", "start_date": null, "wikidata": null, "architector1": null, "architector2": null, "demolished": 0, "ngw_id": 137 }, "geometry": { "type": "Point", "coordinates": [ 60.601068735122695, 56.819678122554002 ] } },
{ "type": "Feature", "properties": { "name": "Суд", "name_int": "Courthouse", "description_ru": null, "description_int": null, "cool": "2.5", "start_date": "1920s", "wikidata": null, "architector1": null, "architector2": null, "demolished": 0, "ngw_id": 138 }, "geometry": { "type": "Point", "coordinates": [ 60.580029487609885, 56.831349109468199 ] } },
{ "type": "Feature", "properties": { "name": "Детский сад городка юстиции", "name_int": "Kindergarden", "description_ru": null, "description_int": null, "cool": "2.5", "start_date": null, "wikidata": null, "architector1": null, "architector2": null, "demolished": 0, "ngw_id": 139 }, "geometry": { "type": "Point", "coordinates": [ 60.581692457199132, 56.830169260443746 ] } },
{ "type": "Feature", "properties": { "name": "Жилой дом городка юстиции", "name_int": null, "description_ru": null, "description_int": null, "cool": "2.5", "start_date": null, "wikidata": null, "architector1": null, "architector2": null, "demolished": 0, "ngw_id": 140 }, "geometry": { "type": "Point", "coordinates": [ 60.580721497535734, 56.830882457208112 ] } },
{ "type": "Feature", "properties": { "name": "Комплекс института физиотерапии", "name_int": null, "description_ru": null, "description_int": null, "cool": "2.4", "start_date": null, "wikidata": null, "architector1": null, "architector2": null, "demolished": 0, "ngw_id": 141 }, "geometry": { "type": "Point", "coordinates": [ 60.581241846084652, 56.835381447138268 ] } },
{ "type": "Feature", "properties": { "name": "Дворец молодёжи", "name_int": null, "description_ru": null, "description_int": null, "cool": "2.5", "start_date": null, "wikidata": null, "architector1": null, "architector2": null, "demolished": 0, "ngw_id": 142 }, "geometry": { "type": "Point", "coordinates": [ 60.580179691314648, 56.837828811508864 ] } },
{ "type": "Feature", "properties": { "name": "4-этажный жилой дом", "name_int": null, "description_ru": null, "description_int": null, "cool": "2.5", "start_date": null, "wikidata": null, "architector1": null, "architector2": null, "demolished": 0, "ngw_id": 143 }, "geometry": { "type": "Point", "coordinates": [ 60.583398342132547, 56.837852286651483 ] } },
{ "type": "Feature", "properties": { "name": "Комплекс Уралоблсовета", "name_int": null, "description_ru": null, "description_int": null, "cool": "3", "start_date": null, "wikidata": null, "architector1": null, "architector2": null, "demolished": 0, "ngw_id": 144 }, "geometry": { "type": "Point", "coordinates": [ 60.591037273407032, 56.833371202067731 ] } },
{ "type": "Feature", "properties": { "name": "5-й дом Горсовета", "name_int": null, "description_ru": null, "description_int": null, "cool": "2.6", "start_date": null, "wikidata": null, "architector1": null, "architector2": null, "demolished": 0, "ngw_id": 145 }, "geometry": { "type": "Point", "coordinates": [ 60.595757961273236, 56.834683009260694 ] } },
{ "type": "Feature", "properties": { "name": "Дом специалистов", "name_int": null, "description_ru": null, "description_int": null, "cool": "2.6", "start_date": null, "wikidata": null, "architector1": null, "architector2": null, "demolished": 0, "ngw_id": 146 }, "geometry": { "type": "Point", "coordinates": [ 60.59701323509217, 56.834439433323446 ] } },
{ "type": "Feature", "properties": { "name": "Союз-хлеб", "name_int": null, "description_ru": "Конструктивизм. Здание внутри квартала, с улиц не видно, но можно как-то подойти", "description_int": null, "cool": "2.6", "start_date": null, "wikidata": null, "architector1": null, "architector2": null, "demolished": 0, "ngw_id": 147 }, "geometry": { "type": "Point", "coordinates": [ 60.597887635231054, 56.83477691763256 ] } },
{ "type": "Feature", "properties": { "name": "79 казарма", "name_int": "Factory barracks", "description_ru": "Переделана в институт", "description_int": "Use as institute", "cool": "4", "start_date": null, "wikidata": null, "architector1": null, "architector2": null, "demolished": 0, "ngw_id": 148 }, "geometry": { "type": "Point", "coordinates": [ 38.978465628116538, 55.800971123620613 ] } },
{ "type": "Feature", "properties": { "name": "Самомазка", "name_int": "Samomazka barracks", "description_ru": "Самая старая, тесная и стрёмная казарма. Здание было и казармой, и фабрикой", "description_int": "Oldest and narrow barracks", "cool": "5", "start_date": null, "wikidata": null, "architector1": null, "architector2": null, "demolished": 0, "ngw_id": 149 }, "geometry": { "type": "Point", "coordinates": [ 38.986360590508546, 55.808745581259068 ] } },
{ "type": "Feature", "properties": { "name": "Многоквартирный дом", "name_int": "Apartments building", "description_ru": null, "description_int": null, "cool": "5", "start_date": "1920s", "wikidata": null, "architector1": null, "architector2": null, "demolished": 0, "ngw_id": 150 }, "geometry": { "type": "Point", "coordinates": [ 38.979549651450192, 55.802626534981783 ] } },
{ "type": "Feature", "properties": { "name": "Почта", "name_int": "Post office", "description_ru": null, "description_int": null, "cool": "4", "start_date": "1920s", "wikidata": null, "architector1": null, "architector2": null, "demolished": 0, "ngw_id": 151 }, "geometry": { "type": "Point", "coordinates": [ 38.981758604658275, 55.803051872368819 ] } },
{ "type": "Feature", "properties": { "name": "Дом обороны", "name_int": null, "description_ru": null, "description_int": null, "cool": "2.5", "start_date": null, "wikidata": null, "architector1": null, "architector2": null, "demolished": 0, "ngw_id": 152 }, "geometry": { "type": "Point", "coordinates": [ 60.601170659065296, 56.8347710483662 ] } },
{ "type": "Feature", "properties": { "name": "Офисное здание", "name_int": "Office building", "description_ru": null, "description_int": null, "cool": "3", "start_date": null, "wikidata": null, "architector1": null, "architector2": null, "demolished": 0, "ngw_id": 153 }, "geometry": { "type": "Point", "coordinates": [ 60.602388381957972, 56.835129071929515 ] } },
{ "type": "Feature", "properties": { "name": "2-й дом Горсовета", "name_int": null, "description_ru": null, "description_int": null, "cool": "3", "start_date": null, "wikidata": null, "architector1": "Веснины", "architector2": null, "demolished": 0, "ngw_id": 154 }, "geometry": { "type": "Point", "coordinates": [ 60.607312917709379, 56.837761320391934 ] } },
{ "type": "Feature", "properties": { "name": "Клуб строителей", "name_int": "Construction workers Club", "description_ru": "С 1943 до 1990-х здание Свердловской киностудии, зрительный зал был переделан в павильон. С 2000-х универмаг", "description_int": null, "cool": "4", "start_date": "1929-1933", "wikidata": null, "architector1": "Яков Абрамович Корнфельд", "architector2": null, "demolished": 0, "ngw_id": 155 }, "geometry": { "type": "Point", "coordinates": [ 60.621464252471917, 56.839554195273031 ] } },
{ "type": "Feature", "properties": { "name": "Комплекс общаг", "name_int": null, "description_ru": null, "description_int": null, "cool": "3", "start_date": null, "wikidata": null, "architector1": null, "architector2": null, "demolished": 0, "ngw_id": 156 }, "geometry": { "type": "Point", "coordinates": [ 60.626442432403579, 56.839812409131746 ] } },
{ "type": "Feature", "properties": { "name": "Жилой дом", "name_int": null, "description_ru": null, "description_int": null, "cool": "2.5", "start_date": null, "wikidata": null, "architector1": null, "architector2": null, "demolished": 0, "ngw_id": 157 }, "geometry": { "type": "Point", "coordinates": [ 60.618647933006329, 56.848209257214634 ] } },
{ "type": "Feature", "properties": { "name": "Партшкола", "name_int": "Communist party school building", "description_ru": "Советский модернизм. Смотреть с юга.", "description_int": "Soviet modernism", "cool": "4", "start_date": null, "wikidata": null, "architector1": null, "architector2": "", "demolished": 0, "ngw_id": 158 }, "geometry": { "type": "Point", "coordinates": [ 60.603574261855314, 56.822951654102148 ] } },
{ "type": "Feature", "properties": { "name": "Банно-прачечный комбинат", "name_int": "Banya", "description_ru": "", "description_int": "", "cool": "2.5", "start_date": "1933", "wikidata": null, "architector1": "", "architector2": "", "demolished": 0, "ngw_id": 159 }, "geometry": { "type": "Point", "coordinates": [ 60.580426454544025, 56.886724929638156 ] } },
{ "type": "Feature", "properties": { "name": "Лаборатория", "name_int": "Laboratory building", "description_ru": null, "description_int": null, "cool": "2.5", "start_date": null, "wikidata": null, "architector1": "П.В. Оранский", "architector2": "В.В. Безруков", "demolished": 0, "ngw_id": 160 }, "geometry": { "type": "Point", "coordinates": [ 60.593558549880989, 56.885283066140651 ] } },
{ "type": "Feature", "properties": { "name": "Дом техучёбы", "name_int": "UZTM training and office building", "description_ru": "Конструктивизм. Строилось как дом-коммуна, сразу же перепрофилировано в конторское", "description_int": "Constructivism. Planned as commune, used for plant offices", "cool": "2.5", "start_date": "", "wikidata": null, "architector1": "", "architector2": "", "demolished": 0, "ngw_id": 161 }, "geometry": { "type": "Point", "coordinates": [ 60.591713190078714, 56.886637012724833 ] } },
{ "type": "Feature", "properties": { "name": "Заводоуправление УЗТМ", "name_int": "UZTM main office", "description_ru": null, "description_int": null, "cool": "2.5", "start_date": "1934", "wikidata": null, "architector1": "П.В. Оранский", "architector2": "В.В. Безруков", "demolished": 0, "ngw_id": 162 }, "geometry": { "type": "Point", "coordinates": [ 60.591630916870535, 56.885118253714118 ] } },
{ "type": "Feature", "properties": { "name": "Фабрика", "name_int": "Factory", "description_ru": null, "description_int": null, "cool": "3", "start_date": null, "wikidata": null, "architector1": null, "architector2": null, "demolished": 0, "ngw_id": 163 }, "geometry": { "type": "Point", "coordinates": [ 37.954786419868448, 55.813384920660738 ] } },
{ "type": "Feature", "properties": { "name": "Фабричный корпус", "name_int": "Factory", "description_ru": null, "description_int": null, "cool": "2.5", "start_date": null, "wikidata": null, "architector1": null, "architector2": null, "demolished": 0, "ngw_id": 164 }, "geometry": { "type": "Point", "coordinates": [ 37.957533001899684, 55.813107612018115 ] } },
{ "type": "Feature", "properties": { "name": "Поликлиника", "name_int": "Clinic", "description_ru": null, "description_int": null, "cool": "2.5", "start_date": null, "wikidata": null, "architector1": null, "architector2": null, "demolished": 0, "ngw_id": 165 }, "geometry": { "type": "Point", "coordinates": [ 37.96147048473361, 55.81353261684874 ] } },
{ "type": "Feature", "properties": { "name": "Заброшка у поликлиники", "name_int": "Abandoned barn in clinic", "description_ru": null, "description_int": null, "cool": "2.5", "start_date": null, "wikidata": null, "architector1": null, "architector2": null, "demolished": 0, "ngw_id": 166 }, "geometry": { "type": "Point", "coordinates": [ 37.961969375610352, 55.813975702049675 ] } },
{ "type": "Feature", "properties": { "name": "Дореволюционное общещитие надстроенное", "name_int": null, "description_ru": null, "description_int": null, "cool": "2.5", "start_date": null, "wikidata": null, "architector1": null, "architector2": null, "demolished": 0, "ngw_id": 167 }, "geometry": { "type": "Point", "coordinates": [ 37.962495088577263, 55.812920728992324 ] } },
{ "type": "Feature", "properties": { "name": "Жилой дом 1920-х годов", "name_int": null, "description_ru": null, "description_int": null, "cool": "2.5", "start_date": null, "wikidata": null, "architector1": null, "architector2": null, "demolished": 0, "ngw_id": 168 }, "geometry": { "type": "Point", "coordinates": [ 37.966432571411097, 55.813906376126631 ] } },
{ "type": "Feature", "properties": { "name": "Двухэтажное здание", "name_int": null, "description_ru": null, "description_int": null, "cool": "2.5", "start_date": null, "wikidata": null, "architector1": null, "architector2": null, "demolished": 0, "ngw_id": 169 }, "geometry": { "type": "Point", "coordinates": [ 37.964265346527114, 55.812993070915212 ] } },
{ "type": "Feature", "properties": { "name": "Общежитие", "name_int": "Dormitory", "description_ru": null, "description_int": null, "cool": "2.5", "start_date": null, "wikidata": null, "architector1": null, "architector2": null, "demolished": 0, "ngw_id": 170 }, "geometry": { "type": "Point", "coordinates": [ 37.964678406715421, 55.816383947672051 ] } },
{ "type": "Feature", "properties": { "name": "25-этажный жилой дом", "name_int": "Apartments", "description_ru": null, "description_int": null, "cool": "4", "start_date": "1984", "wikidata": null, "architector1": "Белоконь", "architector2": null, "demolished": 0, "ngw_id": 171 }, "geometry": { "type": "Point", "coordinates": [ 37.972413897514322, 55.826304709453886 ] } },
{ "type": "Feature", "properties": { "name": "Клуб", "name_int": "Club", "description_ru": null, "description_int": null, "cool": "0.9", "start_date": "1934", "wikidata": null, "architector1": null, "architector2": null, "demolished": 0, "ngw_id": 172 }, "geometry": { "type": "Point", "coordinates": [ 36.715251803398139, 56.351074243314073 ] } },
{ "type": "Feature", "properties": { "name": "Жилой дом", "name_int": "Apartments", "description_ru": null, "description_int": null, "cool": "1", "start_date": "1930s", "wikidata": null, "architector1": null, "architector2": null, "demolished": 0, "ngw_id": 173 }, "geometry": { "type": "Point", "coordinates": [ 36.719205379486063, 56.348821068804867 ] } },
{ "type": "Feature", "properties": { "name": "Жилой дом", "name_int": "Apartments", "description_ru": null, "description_int": null, "cool": "1", "start_date": "1930s", "wikidata": null, "architector1": null, "architector2": null, "demolished": 0, "ngw_id": 174 }, "geometry": { "type": "Point", "coordinates": [ 36.720428466796911, 56.346668835879342 ] } },
{ "type": "Feature", "properties": { "name": "Жилой дом", "name_int": "Apartments", "description_ru": null, "description_int": null, "cool": "1", "start_date": "1930s", "wikidata": null, "architector1": null, "architector2": null, "demolished": 0, "ngw_id": 175 }, "geometry": { "type": "Point", "coordinates": [ 36.719666719436631, 56.347768749094243 ] } },
{ "type": "Feature", "properties": { "name": "Жилой дом", "name_int": "Apartments", "description_ru": null, "description_int": null, "cool": "1", "start_date": "1930s", "wikidata": null, "architector1": null, "architector2": null, "demolished": 0, "ngw_id": 176 }, "geometry": { "type": "Point", "coordinates": [ 36.72096490859991, 56.347364460355834 ] } },
{ "type": "Feature", "properties": { "name": "Жилой дом", "name_int": "Apartments", "description_ru": null, "description_int": null, "cool": "1", "start_date": "1930s", "wikidata": null, "architector1": null, "architector2": null, "demolished": 0, "ngw_id": 177 }, "geometry": { "type": "Point", "coordinates": [ 36.721394062042222, 56.347863875233436 ] } },
{ "type": "Feature", "properties": { "name": "Жилой дом", "name_int": "Apartments", "description_ru": null, "description_int": null, "cool": "1", "start_date": "1930s", "wikidata": null, "architector1": null, "architector2": null, "demolished": 0, "ngw_id": 178 }, "geometry": { "type": "Point", "coordinates": [ 36.721791028976448, 56.348381119463241 ] } },
{ "type": "Feature", "properties": { "name": "Жилой дом", "name_int": "Apartments", "description_ru": null, "description_int": null, "cool": "1", "start_date": "1920s", "wikidata": null, "architector1": null, "architector2": null, "demolished": 0, "ngw_id": 179 }, "geometry": { "type": "Point", "coordinates": [ 35.875242948532083, 56.870638553426637 ] } },
{ "type": "Feature", "properties": { "name": "Фрагмент кругового депо", "name_int": null, "description_ru": null, "description_int": null, "cool": "2", "start_date": "1851", "wikidata": null, "architector1": null, "architector2": null, "demolished": 0, "ngw_id": 180 }, "geometry": { "type": "Point", "coordinates": [ 36.70866429805757, 56.332551458686261 ] } },
{ "type": "Feature", "properties": { "name": "Фрагмент здания школы", "name_int": null, "description_ru": null, "description_int": null, "cool": "2", "start_date": "", "wikidata": null, "architector1": null, "architector2": null, "demolished": 0, "ngw_id": 181 }, "geometry": { "type": "Point", "coordinates": [ 36.708106398582395, 56.33354769596361 ] } },
{ "type": "Feature", "properties": { "name": "Вокзал Клин линии Клин - Высоковск", "name_int": "Train station of Klin-Visokovsk branch", "description_ru": null, "description_int": null, "cool": "2", "start_date": null, "wikidata": null, "architector1": null, "architector2": null, "demolished": 0, "ngw_id": 182 }, "geometry": { "type": "Point", "coordinates": [ 36.707773804664605, 56.331876381630252 ] } },
{ "type": "Feature", "properties": { "name": "Линейно-путевое здание линии Клин - Высоковск", "name_int": null, "description_ru": null, "description_int": null, "cool": "1,5", "start_date": null, "wikidata": null, "architector1": null, "architector2": null, "demolished": 0, "ngw_id": 183 }, "geometry": { "type": "Point", "coordinates": [ 36.675029397010789, 56.332260017192951 ] } },
{ "type": "Feature", "properties": { "name": "Линейно-путевое здание линии Клин - Высоковск", "name_int": null, "description_ru": null, "description_int": null, "cool": "1", "start_date": "", "wikidata": null, "architector1": null, "architector2": null, "demolished": 0, "ngw_id": 184 }, "geometry": { "type": "Point", "coordinates": [ 36.585733294487014, 56.32160303108266 ] } },
{ "type": "Feature", "properties": { "name": "Вокзал Высоковск", "name_int": "Train station", "description_ru": null, "description_int": null, "cool": "2", "start_date": null, "wikidata": null, "architector1": "", "architector2": null, "demolished": 0, "ngw_id": 185 }, "geometry": { "type": "Point", "coordinates": [ 36.566394567489624, 56.320701675886745 ] } },
{ "type": "Feature", "properties": { "name": "Эрмитаж-Выборг", "name_int": null, "description_ru": null, "description_int": null, "cool": "2", "start_date": "1930", "wikidata": null, "architector1": "Уно Ульберг", "architector2": null, "demolished": 0, "ngw_id": 186 }, "geometry": { "type": "Point", "coordinates": [ 28.737670183181805, 60.708356535910212 ] } },
{ "type": "Feature", "properties": { "name": "Дом страхового общества Карьяла", "name_int": null, "description_ru": null, "description_int": null, "cool": "5", "start_date": "1939-1943", "wikidata": null, "architector1": "Олли Пёюрю", "architector2": null, "demolished": 0, "ngw_id": 187 }, "geometry": { "type": "Point", "coordinates": [ 28.754450082778895, 60.710768424982128 ] } },
{ "type": "Feature", "properties": { "name": "Здание городского ломбарда", "name_int": null, "description_ru": null, "description_int": null, "cool": "4", "start_date": "1931", "wikidata": null, "architector1": "Уно Ульберг", "architector2": null, "demolished": 0, "ngw_id": 188 }, "geometry": { "type": "Point", "coordinates": [ 28.730304837226868, 60.712356131288722 ] } },
{ "type": "Feature", "properties": { "name": "Здание окружного архива", "name_int": null, "description_ru": null, "description_int": null, "cool": "4", "start_date": "1933", "wikidata": null, "architector1": "Уно Ульберг", "architector2": null, "demolished": 0, "ngw_id": 189 }, "geometry": { "type": "Point", "coordinates": [ 28.723915815353415, 60.715284653168041 ] } },
{ "type": "Feature", "properties": { "name": "Библиотека им. Аалто", "name_int": null, "description_ru": null, "description_int": null, "cool": "5", "start_date": "1935", "wikidata": null, "architector1": "Алвар Аалто", "architector2": null, "demolished": 0, "ngw_id": 190 }, "geometry": { "type": "Point", "coordinates": [ 28.747251033782995, 60.708970679356568 ] } },
{ "type": "Feature", "properties": { "name": "Трамвайный столб", "name_int": null, "description_ru": null, "description_int": null, "cool": "2", "start_date": "1900", "wikidata": null, "architector1": null, "architector2": null, "demolished": 0, "ngw_id": 191 }, "geometry": { "type": "Point", "coordinates": [ 28.761332631111181, 60.718317858594162 ] } },
{ "type": "Feature", "properties": { "name": "Хлебокомбинат компании SOK", "name_int": null, "description_ru": null, "description_int": null, "cool": "5", "start_date": "1932", "wikidata": null, "architector1": "Эркки Хуттунен", "architector2": null, "demolished": 0, "ngw_id": 192 }, "geometry": { "type": "Point", "coordinates": [ 28.739338517189058, 60.70652715875984 ] } },
{ "type": "Feature", "properties": { "name": "Саво-Карельская оптовая торговля", "name_int": null, "description_ru": null, "description_int": null, "cool": "5", "start_date": "1937", "wikidata": null, "architector1": "Тойво Паатела", "architector2": null, "demolished": 0, "ngw_id": 193 }, "geometry": { "type": "Point", "coordinates": [ 28.742444515228268, 60.713489784320934 ] } },
{ "type": "Feature", "properties": { "name": "Трамвайное депо", "name_int": null, "description_ru": null, "description_int": null, "cool": "5", "start_date": null, "wikidata": null, "architector1": null, "architector2": null, "demolished": 0, "ngw_id": 194 }, "geometry": { "type": "Point", "coordinates": [ 28.740448951721223, 60.706881493884673 ] } },
{ "type": "Feature", "properties": { "name": "Здание Объединенного северного банка", "name_int": null, "description_ru": null, "description_int": null, "cool": "5", "start_date": "1938", "wikidata": null, "architector1": "О. Каллио", "architector2": null, "demolished": 0, "ngw_id": 195 }, "geometry": { "type": "Point", "coordinates": [ 28.747771382331816, 60.710296034411833 ] } },
{ "type": "Feature", "properties": { "name": "Автовокзал", "name_int": "Bus station", "description_ru": null, "description_int": null, "cool": "4", "start_date": "1932-1937", "wikidata": null, "architector1": "В. Кейнянен", "architector2": "У. Ульберг", "demolished": 0, "ngw_id": 196 }, "geometry": { "type": "Point", "coordinates": [ 28.749064207077009, 60.714772968318478 ] } },
{ "type": "Feature", "properties": { "name": "АЗС", "name_int": "Gas station", "description_ru": null, "description_int": null, "cool": "4", "start_date": "1929", "wikidata": null, "architector1": "И. Меурман", "architector2": null, "demolished": 0, "ngw_id": 197 }, "geometry": { "type": "Point", "coordinates": [ 28.749820590019201, 60.715114092456851 ] } },
{ "type": "Feature", "properties": { "name": "Дом Москвина", "name_int": "Apartments", "description_ru": null, "description_int": null, "cool": "4", "start_date": "1907", "wikidata": null, "architector1": "Пааво Уотила", "architector2": null, "demolished": 0, "ngw_id": 198 }, "geometry": { "type": "Point", "coordinates": [ 28.750963211059545, 60.710443001111067 ] } },
{ "type": "Feature", "properties": { "name": "Дом АО \"Отсо\"", "name_int": "Apartments", "description_ru": null, "description_int": null, "cool": "4", "start_date": "1907", "wikidata": null, "architector1": "Аллан Шульман", "architector2": null, "demolished": 0, "ngw_id": 199 }, "geometry": { "type": "Point", "coordinates": [ 28.751354813575769, 60.710723810614063 ] } },
{ "type": "Feature", "properties": { "name": "Дом АО \"Эден\"", "name_int": "Apartments", "description_ru": null, "description_int": null, "cool": "4", "start_date": "1913", "wikidata": null, "architector1": "Клас Аксель Гюльден", "architector2": "", "demolished": 0, "ngw_id": 200 }, "geometry": { "type": "Point", "coordinates": [ 28.746982812881445, 60.707878860672395 ] } },
{ "type": "Feature", "properties": { "name": "Дом АО \"Хяккли, Лаллукка и Ко\"", "name_int": "Apartments", "description_ru": null, "description_int": null, "cool": "5", "start_date": "1905", "wikidata": null, "architector1": "Аллан Шульман", "architector2": null, "demolished": 0, "ngw_id": 201 }, "geometry": { "type": "Point", "coordinates": [ 28.751923441886944, 60.712495215873211 ] } },
{ "type": "Feature", "properties": { "name": "Жилой дом Воробьева", "name_int": "Apartments", "description_ru": null, "description_int": null, "cool": "3", "start_date": "1903-1939", "wikidata": null, "architector1": "Аллан Шульман", "architector2": "В. Кейнянен", "demolished": 0, "ngw_id": 202 }, "geometry": { "type": "Point", "coordinates": [ 28.750845193862943, 60.713111904420394 ] } },
{ "type": "Feature", "properties": { "name": "Водонапорная башня", "name_int": "Water tower", "description_ru": null, "description_int": null, "cool": "5", "start_date": "1930", "wikidata": null, "architector1": "В. Кейнянен", "architector2": null, "demolished": 0, "ngw_id": 203 }, "geometry": { "type": "Point", "coordinates": [ 28.764025568962079, 60.706416920368881 ] } },
{ "type": "Feature", "properties": { "name": "Viipuri Keksi ia Rinkeli Oy", "name_int": null, "description_ru": null, "description_int": null, "cool": "4", "start_date": "1938", "wikidata": null, "architector1": "Арви Ростила", "architector2": null, "demolished": 0, "ngw_id": 204 }, "geometry": { "type": "Point", "coordinates": [ 28.757057189941367, 60.710666074281107 ] } },
{ "type": "Feature", "properties": { "name": "Комплекс складских помещений компании Starckjohann & Co", "name_int": null, "description_ru": null, "description_int": null, "cool": "4", "start_date": "1939", "wikidata": null, "architector1": "Ялмари Ланкинен", "architector2": null, "demolished": 0, "ngw_id": 205 }, "geometry": { "type": "Point", "coordinates": [ 28.740062713623079, 60.704387941518661 ] } },
{ "type": "Feature", "properties": { "name": "СДЮСШОР Приморского района", "name_int": null, "description_ru": null, "description_int": null, "cool": "4", "start_date": "1982-1986", "wikidata": null, "architector1": "С. П. Шмаков", "architector2": "", "demolished": 0, "ngw_id": 206 }, "geometry": { "type": "Point", "coordinates": [ 30.2776551246643, 60.012679064780357 ] } },
{ "type": "Feature", "properties": { "name": "Вокзал Шувалово", "name_int": null, "description_ru": null, "description_int": null, "cool": "4", "start_date": null, "wikidata": null, "architector1": null, "architector2": null, "demolished": 0, "ngw_id": 207 }, "geometry": { "type": "Point", "coordinates": [ 30.297964811325087, 60.046865201376413 ] } },
{ "type": "Feature", "properties": { "name": "Мастерская Аникушина ", "name_int": null, "description_ru": null, "description_int": null, "cool": "4", "start_date": "1969", "wikidata": null, "architector1": "Филип Гепнер", "architector2": null, "demolished": 0, "ngw_id": 208 }, "geometry": { "type": "Point", "coordinates": [ 30.29710650444029, 59.97316972933686 ] } },
{ "type": "Feature", "properties": { "name": "Институт робототехники", "name_int": null, "description_ru": null, "description_int": null, "cool": "5", "start_date": "1987", "wikidata": null, "architector1": "С.В. Савин", "architector2": "Б.И. Артюшин", "demolished": 0, "ngw_id": 209 }, "geometry": { "type": "Point", "coordinates": [ 30.368388891220125, 60.020887821446173 ] } },
{ "type": "Feature", "properties": { "name": "Пограничника Гарькавого 35 к2", "name_int": null, "description_ru": null, "description_int": null, "cool": "4", "start_date": null, "wikidata": null, "architector1": null, "architector2": null, "demolished": 0, "ngw_id": 210 }, "geometry": { "type": "Point", "coordinates": [ 30.145089626312217, 59.83263221605678 ] } },
{ "type": "Feature", "properties": { "name": "ГИ под снос", "name_int": null, "description_ru": null, "description_int": null, "cool": "4", "start_date": "1967", "wikidata": null, "architector1": null, "architector2": null, "demolished": 0, "ngw_id": 211 }, "geometry": { "type": "Point", "coordinates": [ 30.140626430511468, 59.82639901660886 ] } },
{ "type": "Feature", "properties": { "name": "Бани «Гигант»", "name_int": "Bath house Gigant", "description_ru": null, "description_int": null, "cool": "3.5", "start_date": "1930", "wikidata": null, "architector1": "А. С. Никольский", "architector2": null, "demolished": 0, "ngw_id": 212 }, "geometry": { "type": "Point", "coordinates": [ 30.268954038619999, 59.893856063230388 ] } },
{ "type": "Feature", "properties": { "name": "Большой дом", "name_int": null, "description_ru": null, "description_int": null, "cool": "2", "start_date": "1930", "wikidata": null, "architector1": "Ной Троцкий", "architector2": null, "demolished": 0, "ngw_id": 213 }, "geometry": { "type": "Point", "coordinates": [ 30.349441766738867, 59.948450752394777 ] } },
{ "type": "Feature", "properties": { "name": "ДК им. Ленина", "name_int": null, "description_ru": null, "description_int": null, "cool": "4", "start_date": null, "wikidata": null, "architector1": "", "architector2": null, "demolished": 0, "ngw_id": 214 }, "geometry": { "type": "Point", "coordinates": [ 30.466010570526137, 59.864006951867736 ] } },
{ "type": "Feature", "properties": { "name": "Дворец культуры имени С. М. Кирова ", "name_int": null, "description_ru": null, "description_int": null, "cool": "4", "start_date": "1933-1937", "wikidata": null, "architector1": "Ной Троцкий", "architector2": null, "demolished": 0, "ngw_id": 215 }, "geometry": { "type": "Point", "coordinates": [ 30.254459381103494, 59.933683077209359 ] } },
{ "type": "Feature", "properties": { "name": "ЦБТО на 9000 жителей (бублик)", "name_int": null, "description_ru": null, "description_int": null, "cool": "3", "start_date": "1973", "wikidata": null, "architector1": "Л.М.Гольдвассер", "architector2": "В.В.Федорович", "demolished": 0, "ngw_id": 216 }, "geometry": { "type": "Point", "coordinates": [ 30.399405956268343, 60.016169778013378 ] } },
{ "type": "Feature", "properties": { "name": "ЦБТО на 9000 жителей (бублик)", "name_int": null, "description_ru": null, "description_int": null, "cool": "3", "start_date": "1973", "wikidata": null, "architector1": "Л.М.Гольдвассер", "architector2": "В.В.Федорович", "demolished": 0, "ngw_id": 217 }, "geometry": { "type": "Point", "coordinates": [ 30.203433036804199, 59.830141233031767 ] } },
{ "type": "Feature", "properties": { "name": "ЦБТО на 9000 жителей (бублик)", "name_int": null, "description_ru": null, "description_int": null, "cool": "3", "start_date": "1973", "wikidata": null, "architector1": "Л.М.Гольдвассер", "architector2": "В.В.Федорович", "demolished": 0, "ngw_id": 218 }, "geometry": { "type": "Point", "coordinates": [ 30.173842906951943, 59.841699545858361 ] } },
{ "type": "Feature", "properties": { "name": "ЦБТО на 9000 жителей (Бублик) + неон", "name_int": null, "description_ru": null, "description_int": null, "cool": "4.5", "start_date": "1973", "wikidata": null, "architector1": "Л.М.Гольдвассер", "architector2": "В.В.Федорович", "demolished": 0, "ngw_id": 219 }, "geometry": { "type": "Point", "coordinates": [ 30.227444171905542, 59.944103892110249 ] } },
{ "type": "Feature", "properties": { "name": "Опытный 1ЛГ-600А ", "name_int": null, "description_ru": null, "description_int": null, "cool": "4", "start_date": "1973", "wikidata": null, "architector1": "Э. Бродская", "architector2": null, "demolished": 0, "ngw_id": 220 }, "geometry": { "type": "Point", "coordinates": [ 30.236799716949438, 59.847153848338444 ] } },
{ "type": "Feature", "properties": { "name": "Домофон с крутилками", "name_int": null, "description_ru": null, "description_int": null, "cool": "1.4", "start_date": "1994", "wikidata": null, "architector1": "", "architector2": null, "demolished": 0, "ngw_id": 221 }, "geometry": { "type": "Point", "coordinates": [ 30.455453395843477, 59.920183281936602 ] } },
{ "type": "Feature", "properties": { "name": "ЛЭТИ", "name_int": null, "description_ru": null, "description_int": null, "cool": "5", "start_date": "1970", "wikidata": null, "architector1": "Н. З. Матусевич", "architector2": "В. Л. Левиаш", "demolished": 0, "ngw_id": 222 }, "geometry": { "type": "Point", "coordinates": [ 30.323649644851677, 59.972348297582919 ] } },
{ "type": "Feature", "properties": { "name": "Дом семей офицеров Корпуса охраны приграничья и чиновников Молодечненской гмины", "name_int": null, "description_ru": null, "description_int": null, "cool": "3", "start_date": "1925", "wikidata": null, "architector1": "Юлиан Лисецкий", "architector2": null, "demolished": 0, "ngw_id": 223 }, "geometry": { "type": "Point", "coordinates": [ 26.836842298507676, 54.312993461180433 ] } },
{ "type": "Feature", "properties": { "name": "Жилой дом", "name_int": null, "description_ru": null, "description_int": null, "cool": "3", "start_date": "1920s", "wikidata": null, "architector1": null, "architector2": null, "demolished": 0, "ngw_id": 224 }, "geometry": { "type": "Point", "coordinates": [ 37.993268318360457, 55.920135150759158 ] } },
{ "type": "Feature", "properties": { "name": "Жилой дом", "name_int": null, "description_ru": null, "description_int": null, "cool": "4", "start_date": "1920s", "wikidata": null, "architector1": null, "architector2": null, "demolished": 0, "ngw_id": 225 }, "geometry": { "type": "Point", "coordinates": [ 37.985104439014137, 55.922641899071479 ] } },
{ "type": "Feature", "properties": { "name": "Вид на фабрику", "name_int": null, "description_ru": null, "description_int": null, "cool": "3", "start_date": null, "wikidata": null, "architector1": null, "architector2": null, "demolished": 0, "ngw_id": 226 }, "geometry": { "type": "Point", "coordinates": [ 37.120595375608644, 55.863150758454942 ] } },
{ "type": "Feature", "properties": { "name": "Фабричное общежитие", "name_int": null, "description_ru": null, "description_int": null, "cool": "4", "start_date": "1910", "wikidata": null, "architector1": null, "architector2": null, "demolished": 0, "ngw_id": 227 }, "geometry": { "type": "Point", "coordinates": [ 37.120032257882329, 55.858876131963129 ] } },
{ "type": "Feature", "properties": { "name": "Больничный корпус", "name_int": null, "description_ru": null, "description_int": null, "cool": "3", "start_date": null, "wikidata": null, "architector1": null, "architector2": null, "demolished": 0, "ngw_id": 228 }, "geometry": { "type": "Point", "coordinates": [ 37.122114311580816, 55.858360483748832 ] } },
{ "type": "Feature", "properties": { "name": "Жилой дом", "name_int": null, "description_ru": null, "description_int": null, "cool": "3", "start_date": "1920s", "wikidata": null, "architector1": null, "architector2": null, "demolished": 0, "ngw_id": 229 }, "geometry": { "type": "Point", "coordinates": [ 37.125841261795678, 55.860279575303416 ] } },
{ "type": "Feature", "properties": { "name": "Дом культуры", "name_int": null, "description_ru": "Уколхожен", "description_int": null, "cool": "1", "start_date": "1930s", "wikidata": null, "architector1": null, "architector2": null, "demolished": 0, "ngw_id": 230 }, "geometry": { "type": "Point", "coordinates": [ 37.329045257106777, 55.833004193583626 ] } },
{ "type": "Feature", "properties": { "name": "Пожарная часть", "name_int": "Fire depot", "description_ru": null, "description_int": null, "cool": "4", "start_date": "1920s", "wikidata": null, "architector1": null, "architector2": null, "demolished": 0, "ngw_id": 231 }, "geometry": { "type": "Point", "coordinates": [ 37.330486393919443, 55.831928509942784 ] } },
{ "type": "Feature", "properties": { "name": "Жилой дом", "name_int": null, "description_ru": null, "description_int": null, "cool": "2", "start_date": "1920s", "wikidata": null, "architector1": null, "architector2": null, "demolished": 0, "ngw_id": 232 }, "geometry": { "type": "Point", "coordinates": [ 37.328059801085743, 55.831391697306827 ] } },
{ "type": "Feature", "properties": { "name": null, "name_int": null, "description_ru": null, "description_int": null, "cool": "3", "start_date": null, "wikidata": null, "architector1": null, "architector2": null, "demolished": 0, "ngw_id": 233 }, "geometry": { "type": "Point", "coordinates": [ 37.255136055530031, 55.84293361627148 ] } },
{ "type": "Feature", "properties": { "name": null, "name_int": null, "description_ru": null, "description_int": null, "cool": "2", "start_date": null, "wikidata": null, "architector1": null, "architector2": null, "demolished": 0, "ngw_id": 234 }, "geometry": { "type": "Point", "coordinates": [ 37.254120961733925, 55.842788011380769 ] } },
{ "type": "Feature", "properties": { "name": null, "name_int": null, "description_ru": null, "description_int": null, "cool": "3", "start_date": null, "wikidata": null, "architector1": null, "architector2": null, "demolished": 0, "ngw_id": 235 }, "geometry": { "type": "Point", "coordinates": [ 37.256240062651287, 55.843474429662464 ] } },
{ "type": "Feature", "properties": { "name": "Кирпичный сарай", "name_int": null, "description_ru": null, "description_int": null, "cool": "4", "start_date": null, "wikidata": null, "architector1": null, "architector2": null, "demolished": 0, "ngw_id": 236 }, "geometry": { "type": "Point", "coordinates": [ 37.25581401963472, 55.843124981869906 ] } },
{ "type": "Feature", "properties": { "name": "Фабричное здание 19 века, перестроенное в казарму, затем в сталинку", "name_int": null, "description_ru": null, "description_int": null, "cool": "4", "start_date": "1864", "wikidata": null, "architector1": null, "architector2": null, "demolished": 0, "ngw_id": 237 }, "geometry": { "type": "Point", "coordinates": [ 37.744365571645027, 55.976906169335322 ] } },
{ "type": "Feature", "properties": { "name": "Польский дом для сержантов", "name_int": null, "description_ru": null, "description_int": null, "cool": "4", "start_date": "1922-1925", "wikidata": null, "architector1": null, "architector2": null, "demolished": 0, "ngw_id": 238 }, "geometry": { "type": "Point", "coordinates": [ 26.827787160873406, 54.303904764359793 ] } },
{ "type": "Feature", "properties": { "name": "Польский дом для офицеров", "name_int": null, "description_ru": null, "description_int": null, "cool": "5", "start_date": "1930-1935", "wikidata": null, "architector1": "Владислав Полковский", "architector2": null, "demolished": 0, "ngw_id": 239 }, "geometry": { "type": "Point", "coordinates": [ 26.830759048461932, 54.301140826743627 ] } },
{ "type": "Feature", "properties": { "name": "Польский дом", "name_int": null, "description_ru": null, "description_int": null, "cool": "2", "start_date": null, "wikidata": null, "architector1": null, "architector2": null, "demolished": 0, "ngw_id": 240 }, "geometry": { "type": "Point", "coordinates": [ 26.836901307106015, 54.314098114311854 ] } },
{ "type": "Feature", "properties": { "name": "Польский дом", "name_int": null, "description_ru": null, "description_int": null, "cool": "2", "start_date": null, "wikidata": null, "architector1": null, "architector2": null, "demolished": 0, "ngw_id": 241 }, "geometry": { "type": "Point", "coordinates": [ 26.837807893753073, 54.313832124058671 ] } },
{ "type": "Feature", "properties": { "name": "Польский жилой дом", "name_int": null, "description_ru": null, "description_int": null, "cool": "5", "start_date": null, "wikidata": null, "architector1": null, "architector2": null, "demolished": 0, "ngw_id": 242 }, "geometry": { "type": "Point", "coordinates": [ 26.881549358367945, 55.117679865115946 ] } },
{ "type": "Feature", "properties": { "name": "Застройка площади Старое Место", "name_int": null, "description_ru": null, "description_int": null, "cool": "2", "start_date": null, "wikidata": null, "architector1": null, "architector2": null, "demolished": 0, "ngw_id": 243 }, "geometry": { "type": "Point", "coordinates": [ 26.868814229965206, 54.317878119358156 ] } },
{ "type": "Feature", "properties": { "name": "Гостиница Молодечно", "name_int": null, "description_ru": null, "description_int": null, "cool": "4", "start_date": null, "wikidata": null, "architector1": null, "architector2": null, "demolished": 0, "ngw_id": 244 }, "geometry": { "type": "Point", "coordinates": [ 26.837035417556791, 54.306590270037752 ] } },
{ "type": "Feature", "properties": { "name": "Дворец культуры", "name_int": null, "description_ru": null, "description_int": null, "cool": "2", "start_date": "1990-2002", "wikidata": null, "architector1": null, "architector2": null, "demolished": 0, "ngw_id": 245 }, "geometry": { "type": "Point", "coordinates": [ 26.835640668868994, 54.306727983554886 ] } },
{ "type": "Feature", "properties": { "name": "Дом культуры", "name_int": "Culture center", "description_ru": null, "description_int": null, "cool": "3", "start_date": null, "wikidata": null, "architector1": null, "architector2": null, "demolished": 0, "ngw_id": 246 }, "geometry": { "type": "Point", "coordinates": [ 37.553458213806174, 55.431326759911613 ] } },
{ "type": "Feature", "properties": { "name": "ПТУ", "name_int": "Techincal college", "description_ru": null, "description_int": null, "cool": "3", "start_date": null, "wikidata": null, "architector1": null, "architector2": null, "demolished": 0, "ngw_id": 247 }, "geometry": { "type": "Point", "coordinates": [ 37.556537389755206, 55.432982517840529 ] } },
{ "type": "Feature", "properties": { "name": "Жилой дом", "name_int": null, "description_ru": null, "description_int": null, "cool": "3", "start_date": null, "wikidata": null, "architector1": null, "architector2": null, "demolished": 0, "ngw_id": 248 }, "geometry": { "type": "Point", "coordinates": [ 37.555754184722929, 55.431442421728889 ] } },
{ "type": "Feature", "properties": { "name": "Жилой дом", "name_int": null, "description_ru": null, "description_int": null, "cool": "3", "start_date": null, "wikidata": null, "architector1": null, "architector2": null, "demolished": 0, "ngw_id": 249 }, "geometry": { "type": "Point", "coordinates": [ 37.55500316619873, 55.430827583971343 ] } },
{ "type": "Feature", "properties": { "name": "Почта", "name_int": null, "description_ru": null, "description_int": null, "cool": "4", "start_date": null, "wikidata": null, "architector1": null, "architector2": null, "demolished": 0, "ngw_id": 250 }, "geometry": { "type": "Point", "coordinates": [ 37.547814846038833, 55.432355529441317 ] } },
{ "type": "Feature", "properties": { "name": "Жилой дом", "name_int": null, "description_ru": null, "description_int": null, "cool": "4", "start_date": null, "wikidata": null, "architector1": null, "architector2": null, "demolished": 0, "ngw_id": 251 }, "geometry": { "type": "Point", "coordinates": [ 37.546935081481948, 55.432696417573226 ] } },
{ "type": "Feature", "properties": { "name": "Жилой дом переходного периода", "name_int": null, "description_ru": null, "description_int": null, "cool": "5", "start_date": null, "wikidata": null, "architector1": null, "architector2": null, "demolished": 0, "ngw_id": 252 }, "geometry": { "type": "Point", "coordinates": [ 37.545347213745124, 55.422693779506446 ] } },
{ "type": "Feature", "properties": { "name": "Жилой дом", "name_int": null, "description_ru": null, "description_int": null, "cool": "5", "start_date": "1927", "wikidata": null, "architector1": null, "architector2": null, "demolished": 0, "ngw_id": 253 }, "geometry": { "type": "Point", "coordinates": [ 37.542927861213677, 55.422648113449604 ] } },
{ "type": "Feature", "properties": { "name": "Жилой дом", "name_int": null, "description_ru": null, "description_int": null, "cool": "5", "start_date": null, "wikidata": null, "architector1": null, "architector2": null, "demolished": 0, "ngw_id": 254 }, "geometry": { "type": "Point", "coordinates": [ 37.54417777061461, 55.422684646299302 ] } },
{ "type": "Feature", "properties": { "name": "Жилой дом", "name_int": null, "description_ru": null, "description_int": null, "cool": "5", "start_date": null, "wikidata": null, "architector1": null, "architector2": null, "demolished": 0, "ngw_id": 255 }, "geometry": { "type": "Point", "coordinates": [ 37.544193863868699, 55.421692158536914 ] } },
{ "type": "Feature", "properties": { "name": "Жилой дом", "name_int": null, "description_ru": null, "description_int": null, "cool": "5", "start_date": null, "wikidata": null, "architector1": null, "architector2": null, "demolished": 0, "ngw_id": 256 }, "geometry": { "type": "Point", "coordinates": [ 37.542997598648107, 55.421661713732775 ] } },
{ "type": "Feature", "properties": { "name": "Жилой дом", "name_int": null, "description_ru": null, "description_int": null, "cool": "4", "start_date": "1926-1934", "wikidata": null, "architector1": null, "architector2": null, "demolished": 0, "ngw_id": 257 }, "geometry": { "type": "Point", "coordinates": [ 37.545411586761468, 55.421640402355905 ] } },
{ "type": "Feature", "properties": { "name": "Жилой дом", "name_int": null, "description_ru": null, "description_int": null, "cool": "4", "start_date": "1926-1934", "wikidata": null, "architector1": null, "architector2": null, "demolished": 0, "ngw_id": 258 }, "geometry": { "type": "Point", "coordinates": [ 37.543083429336534, 55.420748358694453 ] } },
{ "type": "Feature", "properties": { "name": "Жилой дом", "name_int": null, "description_ru": null, "description_int": null, "cool": "4", "start_date": "1926-1934", "wikidata": null, "architector1": null, "architector2": null, "demolished": 0, "ngw_id": 259 }, "geometry": { "type": "Point", "coordinates": [ 37.543061971664443, 55.420194246343726 ] } },
{ "type": "Feature", "properties": { "name": "Жилой дом", "name_int": null, "description_ru": null, "description_int": null, "cool": "4", "start_date": "1926-1934", "wikidata": null, "architector1": null, "architector2": null, "demolished": 0, "ngw_id": 260 }, "geometry": { "type": "Point", "coordinates": [ 37.544327974319472, 55.420812294234693 ] } },
{ "type": "Feature", "properties": { "name": "Жилой дом", "name_int": null, "description_ru": null, "description_int": null, "cool": "4", "start_date": "1926-1934", "wikidata": null, "architector1": null, "architector2": null, "demolished": 0, "ngw_id": 261 }, "geometry": { "type": "Point", "coordinates": [ 37.544354796409642, 55.420188157153824 ] } },
{ "type": "Feature", "properties": { "name": "Жилой дом", "name_int": null, "description_ru": null, "description_int": null, "cool": "4", "start_date": "1926-1934", "wikidata": null, "architector1": null, "architector2": null, "demolished": 0, "ngw_id": 262 }, "geometry": { "type": "Point", "coordinates": [ 37.544826865196214, 55.420815338781637 ] } },
{ "type": "Feature", "properties": { "name": "Жилой дом", "name_int": null, "description_ru": null, "description_int": null, "cool": "4", "start_date": "1926-1934", "wikidata": null, "architector1": null, "architector2": null, "demolished": 0, "ngw_id": 263 }, "geometry": { "type": "Point", "coordinates": [ 37.544901967048638, 55.420239915238064 ] } },
{ "type": "Feature", "properties": { "name": "Жилой дом", "name_int": null, "description_ru": null, "description_int": null, "cool": "4", "start_date": "1926-1934", "wikidata": null, "architector1": null, "architector2": null, "demolished": 0, "ngw_id": 264 }, "geometry": { "type": "Point", "coordinates": [ 37.546226978302002, 55.420934075929743 ] } },
{ "type": "Feature", "properties": { "name": "Жилой дом", "name_int": null, "description_ru": null, "description_int": null, "cool": "4", "start_date": "1926-1934", "wikidata": null, "architector1": null, "architector2": null, "demolished": 0, "ngw_id": 265 }, "geometry": { "type": "Point", "coordinates": [ 37.5463449954986, 55.420206424720739 ] } },
{ "type": "Feature", "properties": { "name": "Жилой дом железнодорожников", "name_int": null, "description_ru": null, "description_int": null, "cool": "5", "start_date": null, "wikidata": null, "architector1": null, "architector2": null, "demolished": 0, "ngw_id": 266 }, "geometry": { "type": "Point", "coordinates": [ 37.570458054542549, 55.420306896187476 ] } },
{ "type": "Feature", "properties": { "name": "Жилой дом специалистов", "name_int": null, "description_ru": null, "description_int": null, "cool": "5", "start_date": "1913", "wikidata": null, "architector1": null, "architector2": null, "demolished": 0, "ngw_id": 267 }, "geometry": { "type": "Point", "coordinates": [ 37.571246623992913, 55.42080924968748 ] } },
{ "type": "Feature", "properties": { "name": "Общежитие №1", "name_int": null, "description_ru": null, "description_int": null, "cool": "5", "start_date": "1911", "wikidata": null, "architector1": null, "architector2": null, "demolished": 0, "ngw_id": 268 }, "geometry": { "type": "Point", "coordinates": [ 37.571353912353516, 55.420246004419944 ] } },
{ "type": "Feature", "properties": { "name": "Савинская прядильная фабрика", "name_int": "Savinskaya spinning mill", "description_ru": null, "description_int": null, "cool": "2", "start_date": "1897", "wikidata": null, "architector1": null, "architector2": null, "demolished": 0, "ngw_id": 269 }, "geometry": { "type": "Point", "coordinates": [ 38.03078223325624, 55.727818018441901 ] } },